v_id,lon,lat,typ,voltage,frequency,name,operator,ref,wkt_srid_4326
131,8.10553905313517,53.5565257026489,sub_station,,,Rüstersieler-/Kurt-Schumacher-Straße,,463 E,SRID=4326;POINT(8.10553905313517 53.5565257026489)
200,8.40394268185539,49.089234984154,substation,,,,,,SRID=4326;POINT(8.40394268185539 49.089234984154)
1066,13.2773172915853,52.5285741145061,substation,,,,,,SRID=4326;POINT(13.2773172915853 52.5285741145061)
1359,11.7063885283128,48.2766481758593,substation,,,,Isar-Amperwerke,1639,SRID=4326;POINT(11.7063885283128 48.2766481758593)
2545,13.2116341848095,52.5757701932049,sub_station,,,,Vattenfall,2525,SRID=4326;POINT(13.2116341848095 52.5757701932049)
2546,13.2127413583972,52.5735584649325,sub_station,,,,Vattenfall,4100,SRID=4326;POINT(13.2127413583972 52.5735584649325)
2753,8.52295499412515,53.2085345079425,sub_station,,,,,1240,SRID=4326;POINT(8.52295499412515 53.2085345079425)
2933,13.4221323629185,52.5168873163376,substation,,,U-Station 4,Vattenfall Europe AG,,SRID=4326;POINT(13.4221323629185 52.5168873163376)
3498,9.08395235006862,49.973238789439,sub_station,,,,,,SRID=4326;POINT(9.08395235006862 49.973238789439)
3811,7.92234058667909,48.4809741177741,substation,220000,,In der Spöck,E-Werk Mittelbaden AG,,SRID=4326;POINT(7.92234058667909 48.4809741177741)
3875,11.0479651068824,49.6995461163602,sub_station,,,,,,SRID=4326;POINT(11.0479651068824 49.6995461163602)
4318,6.99532296142208,50.0106438937162,substation,,,,RWE,Bausendorf Moselstraße 23,SRID=4326;POINT(6.99532296142208 50.0106438937162)
6076,8.76445070892252,53.2266841855798,substation,20000,50,Trafostation Hinter dem Gartel,Stadtwerke,,SRID=4326;POINT(8.76445070892252 53.2266841855798)
6909,6.78873029884237,49.3376944875528,sub_station,,,,,,SRID=4326;POINT(6.78873029884237 49.3376944875528)
6948,11.3841463068979,48.2500528127884,sub_station,,,,Isar-Amperwerke,14662,SRID=4326;POINT(11.3841463068979 48.2500528127884)
6955,11.7753029649971,48.2070604112558,sub_station,,,,Isar-Amperwerke,1448,SRID=4326;POINT(11.7753029649971 48.2070604112558)
6981,6.63359232725326,51.2307140908495,sub_station,,,,,Neusser Straße 89,SRID=4326;POINT(6.63359232725326 51.2307140908495)
7198,11.5987011869984,48.2907165723889,sub_station,,,,,15418,SRID=4326;POINT(11.5987011869984 48.2907165723889)
8033,9.20556798003176,52.4145012165713,substation,,,,,,SRID=4326;POINT(9.20556798003176 52.4145012165713)
8316,8.18346107683638,48.8054456126723,substation,,,,Stadtwerke Baden-Baden,Privatstation Buchholz II,SRID=4326;POINT(8.18346107683638 48.8054456126723)
8684,11.4045860338836,48.2070419721001,substation,,,,Isar-Amperwerke,18874,SRID=4326;POINT(11.4045860338836 48.2070419721001)
8738,6.48463224953611,53.6909435045114,substation,155000,,Riffgat,,,SRID=4326;POINT(6.48463224953611 53.6909435045114)
9029,12.7593591192193,48.1985915903112,sub_station,,,,,,SRID=4326;POINT(12.7593591192193 48.1985915903112)
9654,6.02503294993986,54.3549329994864,substation,150000,,BorWin Beta,,,SRID=4326;POINT(6.02503294993986 54.3549329994864)
9828,10.4083626482956,53.4112421020615,substation,,,,,,SRID=4326;POINT(10.4083626482956 53.4112421020615)
10089,8.70215999998569,51.7572512644348,substation,,,,,16122 Waldbad,SRID=4326;POINT(8.70215999998569 51.7572512644348)
10493,7.2409500282111,55.0626999694605,substation,320000;155000,50;0,SylWin Alpha,,,SRID=4326;POINT(7.2409500282111 55.0626999694605)
11779,8.67980461565661,51.8398006652564,sub_station,,,,,019061 Untere Bielefelder Landstraße,SRID=4326;POINT(8.67980461565661 51.8398006652564)
12587,7.73938331787679,54.4532832865379,substation,320000;155000,50;0,HelWin 2,,,SRID=4326;POINT(7.73938331787679 54.4532832865379)
14298,7.73991278490525,54.4520919114385,substation,320000;155000,50;0,HelWin 1,,,SRID=4326;POINT(7.73991278490525 54.4520919114385)
14300,7.73464596239445,54.519907485727,substation,,,,,,SRID=4326;POINT(7.73464596239445 54.519907485727)
14388,6.6292412473431,51.2370301654116,substation,,,,,,SRID=4326;POINT(6.6292412473431 51.2370301654116)
14742,10.7911832100528,53.8996770144897,substation,,,,,,SRID=4326;POINT(10.7911832100528 53.8996770144897)
14989,7.87986545526853,48.4660378929196,substation,20000,,,Gemeindewerke Schutterwald,Station Schutterstraße,SRID=4326;POINT(7.87986545526853 48.4660378929196)
15638,8.7026453597337,51.7489921877656,substation,,,,,016017 Sportplatz Merschweg,SRID=4326;POINT(8.7026453597337 51.7489921877656)
15936,9.99206277421466,53.7897737674627,substation,11000;400,,,Schleswig-Holstein Netz,,SRID=4326;POINT(9.99206277421466 53.7897737674627)
16292,8.73514205282516,50.1591909646631,substation,220000;110000,,Umspannwerk Frankfurt Nord,TenneT;Mainova,,SRID=4326;POINT(8.73514205282516 50.1591909646631)
16295,11.6393123776695,48.1788296658647,substation,380000;110000,50,Föhring,,,SRID=4326;POINT(11.6393123776695 48.1788296658647)
16300,8.80025987436821,49.8405201340222,substation,110000,50,,RWE,,SRID=4326;POINT(8.80025987436821 49.8405201340222)
16304,9.90880366628222,53.4880479150945,substation,380000;110000,50,Umspannwerk Hamburg/Süd,50Hertz Transmission;Stromnetz Hamburg GmbH,,SRID=4326;POINT(9.90880366628222 53.4880479150945)
16307,13.2810385109736,52.5265496420893,substation,380000,50,380 kV-Kabel Terminal Berlin,,,SRID=4326;POINT(13.2810385109736 52.5265496420893)
16315,13.4949156619542,52.5896917989264,substation,380000;110000,50,Umspannwerk Malchow,50Hertz;Stromnetz Berlin,MOW,SRID=4326;POINT(13.4949156619542 52.5896917989264)
16320,6.85158525150195,50.9841157515754,substation,220000;110000,50,Bocklemünd,,,SRID=4326;POINT(6.85158525150195 50.9841157515754)
16322,9.98468123390478,53.7412415213185,substation,380000;220000;110000,50,Umspannwerk Hamburg-Nord,50Hertz Transmission,,SRID=4326;POINT(9.98468123390478 53.7412415213185)
16323,6.93481719318329,51.0334821898355,substation,220000;110000,50,UW Fühlingen,RheinEnergie,,SRID=4326;POINT(6.93481719318329 51.0334821898355)
16324,6.96562913861033,51.0692894233333,substation,380000;220000;110000,,Station Opladen,RWE,,SRID=4326;POINT(6.96562913861033 51.0692894233333)
16326,6.97593071387966,51.0376050362798,substation,220000;110000,,Station Dhünnaue,,,SRID=4326;POINT(6.97593071387966 51.0376050362798)
16327,6.84265878207788,50.8635394606819,substation,380000;110000,,Station Knapsack,Amprion,,SRID=4326;POINT(6.84265878207788 50.8635394606819)
16329,7.19312875539028,50.7982667618259,substation,220000;110000,,Station Siegburg,RWE,,SRID=4326;POINT(7.19312875539028 50.7982667618259)
16330,7.03046449939298,50.7515728107656,substation,110000,,Station Alfter,Westnetz,,SRID=4326;POINT(7.03046449939298 50.7515728107656)
16335,7.09592430437598,50.8267913912258,substation,220000;110000,,Station Stockem,Westnetz,,SRID=4326;POINT(7.09592430437598 50.8267913912258)
16337,12.2487791388668,51.1978814621759,substation,220000;110000,50,Umspannwerk Großdalzig,50Hertz Transmission;enviaM,,SRID=4326;POINT(12.2487791388668 51.1978814621759)
16344,7.00616826157462,51.5997745902162,plant,,,Kraftwerk Scholven,,,SRID=4326;POINT(7.00616826157462 51.5997745902162)
16345,7.03761931936352,51.5985600348228,substation,220000;110000,,Station Bergmannsglück,RWE,,SRID=4326;POINT(7.03761931936352 51.5985600348228)
16347,9.21567500408976,48.8523056758177,substation,380000;110000,50,Umspannwerk Mühlhausen,EnBW AG,,SRID=4326;POINT(9.21567500408976 48.8523056758177)
16348,7.41683173571077,51.4569414720465,substation,380000;220000;110000,50,Station Kruckel,RWE;DSW 21; AVU,,SRID=4326;POINT(7.41683173571077 51.4569414720465)
16349,13.5061055863426,52.473788158542,substation,220000;110000,50,Umspannwerk Wuhlheide,50Hertz;Vattenfall Europe AG,,SRID=4326;POINT(13.5061055863426 52.473788158542)
16359,7.02345297112589,51.6256937960974,substation,380000;220000,50,Station Polsum,Amprion,,SRID=4326;POINT(7.02345297112589 51.6256937960974)
16365,7.12325086922637,51.5256174783935,substation,380000;110000,50,Station Hüllen,RWE,,SRID=4326;POINT(7.12325086922637 51.5256174783935)
16370,6.22182701174799,51.69464403515,substation,220000;110000,,Station Pfalzdorf,RWE,,SRID=4326;POINT(6.22182701174799 51.69464403515)
16377,12.8133594314528,50.8578739115641,substation,380000;220000;110000,50,Umspannwerk Röhrsdorf,50Hertz,ROE,SRID=4326;POINT(12.8133594314528 50.8578739115641)
16379,8.95905978721142,52.2785291495286,substation,220000;110000,50,Umspannwerk Meißen,EON_WestfalenWeser,,SRID=4326;POINT(8.95905978721142 52.2785291495286)
16380,6.8470411835018,51.2054462536945,substation,220000;110000,50,Station Eller,RWE;Stadtwerke Düsseldorf,,SRID=4326;POINT(6.8470411835018 51.2054462536945)
16388,8.98890994152648,48.8040900442966,substation,110000,,Netze BW Umspannwerk Leonberg,Netze BW,,SRID=4326;POINT(8.98890994152648 48.8040900442966)
16389,6.8280930973296,51.1625609934014,substation,220000;110000,50,Station Reisholz,,,SRID=4326;POINT(6.8280930973296 51.1625609934014)
16397,8.77239712245635,49.9746382994216,substation,380000;220000;110000,,Umspannwerk Urberach,RWE,,SRID=4326;POINT(8.77239712245635 49.9746382994216)
16403,6.61743916756048,51.4757023701239,substation,380000;220000;110000,50,Station Utfort,Amprion,,SRID=4326;POINT(6.61743916756048 51.4757023701239)
16406,9.09724031886,48.827763579759,substation,220000;110000,,Umspannwerk Weilimdorf,,,SRID=4326;POINT(9.09724031886 48.827763579759)
16424,10.1576904573558,53.555123880789,substation,380000;110000,50,Umspannwerk Hamburg/Ost,50Hertz Transmission;Stromnetz Hamburg GmbH,,SRID=4326;POINT(10.1576904573558 53.555123880789)
16431,8.43536481117455,50.0590049385188,substation,110000,,Umspannwerk Marxheim,Süwag,,SRID=4326;POINT(8.43536481117455 50.0590049385188)
16432,8.53722088932004,50.0780871976223,substation,220000;110000,50,,,,SRID=4326;POINT(8.53722088932004 50.0780871976223)
16438,9.5224837390032,52.3603763072318,substation,220000;110000,50,Hannover/West,TenneT;EON_Netz,,SRID=4326;POINT(9.5224837390032 52.3603763072318)
16442,10.1083807047508,52.322301755394,substation,,50,Sehnde-Peine,EON_Netz,,SRID=4326;POINT(10.1083807047508 52.322301755394)
16443,8.59070826316469,49.9708005547431,substation,,,,,,SRID=4326;POINT(8.59070826316469 49.9708005547431)
16444,9.89089130280986,52.3655014554176,substation,110000,50,Umspannwerk Anderten,Stadtwerke_Hannover_AG,,SRID=4326;POINT(9.89089130280986 52.3655014554176)
16446,8.12269355233284,53.5604852397308,substation,380000;220000,50,Umspannwerk Maade,TenneT,MAAD,SRID=4326;POINT(8.12269355233284 53.5604852397308)
16450,9.40954428358131,52.0343295468096,plant,,,Kernkraftwerk Grohnde,Gemeinschaftskernkraftwerk Grohnde GmbH & Co. oHG,KWG,SRID=4326;POINT(9.40954428358131 52.0343295468096)
16456,9.8215612468039,52.4248291558675,substation,220000;110000,50,Lahe,enercity Netzgesellschaft mbH,LAH,SRID=4326;POINT(9.8215612468039 52.4248291558675)
16464,9.91718974187077,52.2781719625896,substation,380000;110000,50,Algermissen,TenneT,,SRID=4326;POINT(9.91718974187077 52.2781719625896)
16465,11.4407777967774,48.1718045967307,substation,380000;110000,,Hauptumspannwerk Menzing,Stadtwerke München,MZ,SRID=4326;POINT(11.4407777967774 48.1718045967307)
16474,8.80962882745583,50.2034693827142,substation,380000;110000,,Umspannwerk Karben,TenneT,,SRID=4326;POINT(8.80962882745583 50.2034693827142)
16485,8.57123182656049,52.1053816676144,substation,380000;110000,50,Eickum,TenneT,,SRID=4326;POINT(8.57123182656049 52.1053816676144)
16487,11.2939431565494,48.0520072410856,substation,220000;110000,,Umspannwerk Oberbrunn,'TenneT TSO GmbH, E.ON Netz GmbH',OBR,SRID=4326;POINT(11.2939431565494 48.0520072410856)
16494,10.7610044532169,52.3676873421315,substation,380000,50,Umspannwerk Hattorf,EON_Netz,,SRID=4326;POINT(10.7610044532169 52.3676873421315)
16498,10.3662388404256,52.284697854328,substation,380000;220000,50,Wahle,TenneT,,SRID=4326;POINT(10.3662388404256 52.284697854328)
16499,8.6593496326923,51.9996166081899,substation,380000;220000;110000,50,Umspannwerk Bechterdissen,TenneT,,SRID=4326;POINT(8.6593496326923 51.9996166081899)
16503,6.16736429084078,50.8020351804261,substation,380000;110000,50,Station Verlautenheide,Amprion,,SRID=4326;POINT(6.16736429084078 50.8020351804261)
16509,10.2358928783581,52.2934714858974,substation,380000;110000,50,Klein Ilsede,,U4,SRID=4326;POINT(10.2358928783581 52.2934714858974)
16512,6.90667339939333,51.5652678489579,substation,380000;110000,50,Station Nordlicht,RWE; ELE,,SRID=4326;POINT(6.90667339939333 51.5652678489579)
16519,9.38975028285151,52.0263153482802,substation,380000;110000,50,UW Grohnde 380 kV / 110 kV,TenneT,,SRID=4326;POINT(9.38975028285151 52.0263153482802)
16520,7.52228469963162,51.5321934936105,substation,220000;110000,50,Station Wambel,Ampirion,,SRID=4326;POINT(7.52228469963162 51.5321934936105)
16521,7.44507427512288,51.6185051048958,substation,220000;110000,,Station Elmenhorst,Amprion,,SRID=4326;POINT(7.44507427512288 51.6185051048958)
16526,6.57732656216725,51.556382978496,substation,220000;110000,50,Station Ossenberg,Amprion,,SRID=4326;POINT(6.57732656216725 51.556382978496)
16527,6.61430628472018,51.6186756172163,substation,220000;110000,50,,,,SRID=4326;POINT(6.61430628472018 51.6186756172163)
16537,6.67468089359866,51.3249407796126,substation,220000;110000,,Station Gellep,RWE,,SRID=4326;POINT(6.67468089359866 51.3249407796126)
16538,6.70793591461366,51.3613273880512,substation,,50,,,,SRID=4326;POINT(6.70793591461366 51.3613273880512)
16539,6.65671836002595,51.3795300919305,substation,220000;110000,50,Uerdingen,,,SRID=4326;POINT(6.65671836002595 51.3795300919305)
16543,8.56364799685456,53.0316389910781,substation,380000;110000,50,Ganderkesee,TenneT;EON_Netz;EWE,GANK,SRID=4326;POINT(8.56364799685456 53.0316389910781)
16549,9.50180207384787,53.5429366492302,substation,380000;220000;110000,50,Dollern,,,SRID=4326;POINT(9.50180207384787 53.5429366492302)
16556,6.66023164698349,51.2956192077891,station,110000,,Station Lank,RWE,,SRID=4326;POINT(6.66023164698349 51.2956192077891)
16557,8.48007593057285,50.5909354571843,substation,380000;110000,,Umspannwerk Aßlar,E.ON Mitte AG,,SRID=4326;POINT(8.48007593057285 50.5909354571843)
16558,8.2849177840835,50.7591551291513,substation,380000;110000,50,Dillenburg,e.on;Mitte AG,,SRID=4326;POINT(8.2849177840835 50.7591551291513)
16567,8.9396926172441,52.4030332405173,substation,380000,50,Schaltanlage Ovenstädt,TenneT TSO GmbH,3018,SRID=4326;POINT(8.9396926172441 52.4030332405173)
16570,10.8675276593379,48.5394889202419,substation,380000,,Station Meitingen,Net,,SRID=4326;POINT(10.8675276593379 48.5394889202419)
16573,7.50588449940944,51.4016290427383,substation,220000;110000,,Umspannwerk Garenfeld,markE,,SRID=4326;POINT(7.50588449940944 51.4016290427383)
16576,8.38848178671716,49.98234381014,substation,380000;110000,,Umspannstation Bischofsheim,RWE; Kraftwerke Mainz-Wiesbaden,,SRID=4326;POINT(8.38848178671716 49.98234381014)
16577,8.40373382997779,49.9644145854879,substation,220000;110000,,Umspannwerk Hof Schönau,,,SRID=4326;POINT(8.40373382997779 49.9644145854879)
16588,10.8430900151894,49.3785786730941,substation,380000;220000;110000,50,Umspannwerk Raitersaich,TenneT TSO GmbH;E.ON Netz GmbH,RAI,SRID=4326;POINT(10.8430900151894 49.3785786730941)
16590,10.1602434314727,49.9891799383289,substation,380000;220000;110000,50,Umspannwerk Bergrheinfeld,TenneT TSO GmbH,BRF,SRID=4326;POINT(10.1602434314727 49.9891799383289)
16600,10.8360541430868,49.9280625400359,substation,380000,,Umspannwerk Oberhaid,TenneT TSO GmbH,OD,SRID=4326;POINT(10.8360541430868 49.9280625400359)
16601,10.6643544367682,49.9799579406016,substation,380000;110000,,Umspannwerk Eltmann,Bayernwerk AG,ELT,SRID=4326;POINT(10.6643544367682 49.9799579406016)
16602,11.7922769960326,48.8380990046628,substation,220000;110000,,Umspannwerk Sittling,TenneT TSO GmbH;E.ON Netz GmbH,SIT,SRID=4326;POINT(11.7922769960326 48.8380990046628)
16606,9.59430204180617,49.798366876694,substation,220000;110000,50,Umspannwerk Trennfeld,TenneT TSO GmbH;E.ON Netz GmbH,TRE,SRID=4326;POINT(9.59430204180617 49.798366876694)
16618,6.70247486113495,51.0089107062355,substation,380000;220000,50,Umspannwerk Rommerskirchen,RWE,,SRID=4326;POINT(6.70247486113495 51.0089107062355)
16628,7.500070388354,51.5351685897414,substation,220000,50,Ratsbusch,,,SRID=4326;POINT(7.500070388354 51.5351685897414)
16632,6.92677866419511,51.4992058618537,substation,380000;220000,50,Station Büscherhof,RWE,,SRID=4326;POINT(6.92677866419511 51.4992058618537)
16637,13.1033128822071,48.6668160944141,substation,380000;220000;110000,50,Umspannwerk Pleinting,'TenneT TSO GmbH, E.ON Netz GmbH',PT,SRID=4326;POINT(13.1033128822071 48.6668160944141)
16644,7.10471846117122,51.4817903450582,substation,110000,50,Station Leithe,,,SRID=4326;POINT(7.10471846117122 51.4817903450582)
16648,7.14063453190141,51.5572476198047,substation,110000,,Station Wanne,RWE,,SRID=4326;POINT(7.14063453190141 51.5572476198047)
16649,7.07533546984809,51.5190967101799,substation,110000,50,Station Gelsenkirchen,RWE,,SRID=4326;POINT(7.07533546984809 51.5190967101799)
16653,6.80889986136317,51.2686077003536,substation,380000,50,Station Rath,,,SRID=4326;POINT(6.80889986136317 51.2686077003536)
16655,7.03697898727348,51.5407302699613,substation,110000,50,Station Gelsenberg,RWE; ELE,,SRID=4326;POINT(7.03697898727348 51.5407302699613)
16660,6.93194057885279,51.5650443435446,substation,110000,,Station Ellinghorst,RWE,,SRID=4326;POINT(6.93194057885279 51.5650443435446)
16675,9.77658329728219,53.6906257595232,substation,220000;110000,50,Kummerfeld,TenneT,,SRID=4326;POINT(9.77658329728219 53.6906257595232)
16681,6.3009026536884,50.8288858958718,substation,380000;110000,50,Umspannwerk Weisweiler,,,SRID=4326;POINT(6.3009026536884 50.8288858958718)
16683,6.94758204563946,51.4987851025567,station,110000,,Station Borbeck,RWE,,SRID=4326;POINT(6.94758204563946 51.4987851025567)
16685,10.194941267592,47.9709578480861,substation,220000;110000,50,Umspannwerk Memmingen,LEW,,SRID=4326;POINT(10.194941267592 47.9709578480861)
16687,7.54572444940342,51.9703293255746,substation,380000;110000,50,Station Roxel,RWE,,SRID=4326;POINT(7.54572444940342 51.9703293255746)
16688,12.2621829370027,51.7410675763649,substation,380000;110000,50,Umspannwerk Marke,50Hertz,,SRID=4326;POINT(12.2621829370027 51.7410675763649)
16708,11.0049169401521,50.5074149865379,substation,380000,50,Pumpspeicherwerk Goldisthal,,,SRID=4326;POINT(11.0049169401521 50.5074149865379)
16710,6.85737462758855,51.679255553763,substation,110000,,Station Schermbeck,RWE,,SRID=4326;POINT(6.85737462758855 51.679255553763)
16720,8.70215269346001,51.73632415843,substation,380000;110000,,Umspannwerk Elsen,TenneT,,SRID=4326;POINT(8.70215269346001 51.73632415843)
16725,6.21618621231909,50.9123735385134,substation,380000;110000,50,Siersdorf,,,SRID=4326;POINT(6.21618621231909 50.9123735385134)
16731,11.8681658771207,48.2067732159805,substation,380000;220000,50,Umspannwerk Ottenhofen,TenneT TSO GmbH,OH,SRID=4326;POINT(11.8681658771207 48.2067732159805)
16735,9.40081813227587,48.66697263304,substation,380000;220000;110000,,EnBW Umspannwerk Wendlingen,,,SRID=4326;POINT(9.40081813227587 48.66697263304)
16737,6.94816134193247,51.4445499663625,substation,380000;110000,,Station Rosenblumendelle,RWE,,SRID=4326;POINT(6.94816134193247 51.4445499663625)
16739,10.9036230410759,49.9172943214491,substation,110000,,Umspannwerk Bamberg-Nord,Stadtwerke Bamberg;EON Netz,,SRID=4326;POINT(10.9036230410759 49.9172943214491)
16745,8.36422517775705,51.9270354615835,substation,380000;220000;110000;10000,50,Umspannwerk Blankenhagen,Amprion,,SRID=4326;POINT(8.36422517775705 51.9270354615835)
16746,9.56282337514604,48.7014898474714,substation,380000;110000,50,EnBW Umspannwerk Bünzwangen,EnBW,BZW,SRID=4326;POINT(9.56282337514604 48.7014898474714)
16750,9.88747437008353,52.4944890164256,substation,110000,50,Burgwedel,EON_Netz,BWED,SRID=4326;POINT(9.88747437008353 52.4944890164256)
16751,8.0857180444308,53.605822394523,substation,220000;110000,50,Umspannwerk Voslapp,TenneT;EON_Netz,VOSL,SRID=4326;POINT(8.0857180444308 53.605822394523)
16755,11.6388595511177,52.2687327580152,substation,380000;220000,,Umspannwerk Wolmirstedt,50Hertz Transmission GmbH,,SRID=4326;POINT(11.6388595511177 52.2687327580152)
16759,11.0056026595869,52.1958094769989,substation,110000,,Umspannwerk Helmstedt,E.ON Netz GmbH,,SRID=4326;POINT(11.0056026595869 52.1958094769989)
16772,6.45659087615362,50.8712553400326,substation,380000;110000,50,Station Oberzier,Net,,SRID=4326;POINT(6.45659087615362 50.8712553400326)
16773,6.48813239794586,50.8810659308902,substation,380000,50,Station Hambach,RWE,,SRID=4326;POINT(6.48813239794586 50.8810659308902)
16775,8.62872601939789,51.9936052097019,substation,220000;110000,50,Umspannwerk Bielefeld Ost,Stadtwerke Bielefeld GmbH,,SRID=4326;POINT(8.62872601939789 51.9936052097019)
16793,7.13690146433433,50.642891051359,substation,380000;110000,50,Station Ließem,Amprion,,SRID=4326;POINT(7.13690146433433 50.642891051359)
16794,8.78574565001367,48.5837419032029,substation,380000;110000,50,Netze BW Umspannwerk Oberjettingen,Netze BW,OBJTT,SRID=4326;POINT(8.78574565001367 48.5837419032029)
16799,6.59601482855703,50.9525301303139,substation,380000;110000,50,Station Paffendorf,Amprion,,SRID=4326;POINT(6.59601482855703 50.9525301303139)
16812,9.39174691513401,48.7190550495896,substation,110000;15000,16.7,Unterwerk Plochingen,DB_Energie,,SRID=4326;POINT(9.39174691513401 48.7190550495896)
16815,6.95920503241756,51.1649318918557,station,,,Station Kalstert,RWE,,SRID=4326;POINT(6.95920503241756 51.1649318918557)
16816,10.1563058473307,54.2755448083692,substation,220000;110000,50,Kiel-Süd,EON_Netz;TenneT,,SRID=4326;POINT(10.1563058473307 54.2755448083692)
16830,10.6412606125323,48.0274331829332,substation,220000;110000,50,Umspannstation Irsingen,,,SRID=4326;POINT(10.6412606125323 48.0274331829332)
16832,10.4626490040705,52.2816072662011,substation,,50,Braunschweig-West,,,SRID=4326;POINT(10.4626490040705 52.2816072662011)
16867,10.0604131000084,54.3488018281792,substation,220000;110000,50,Umspannwerk Kiel West,TenneT,,SRID=4326;POINT(10.0604131000084 54.3488018281792)
16877,9.12526389159016,52.538263425925,substation,380000;220000,50,Landesbergen,TenneT TSO GmbH,,SRID=4326;POINT(9.12526389159016 52.538263425925)
16894,7.02355536868255,50.9990243522156,substation,220000,50,Station Dünnwald,,,SRID=4326;POINT(7.02355536868255 50.9990243522156)
16897,6.7097495177313,51.0909359112192,substation,220000;110000,,Station Gohrpunkt,Amprion,,SRID=4326;POINT(6.7097495177313 51.0909359112192)
16931,10.3692309019464,52.1670931348055,substation,220000;110000,50,Salzgitter-Hallendorf,TenneT;EON_Netz,,SRID=4326;POINT(10.3692309019464 52.1670931348055)
16943,10.3789634622624,53.2198904605721,substation,380000;110000,50,Lüneburg,EON_Netz,LUEN,SRID=4326;POINT(10.3789634622624 53.2198904605721)
16953,8.93225454431522,52.193314359583,substation,220000;110000,50,UW Veltheim,Westfalen Weser Netz GmbH,,SRID=4326;POINT(8.93225454431522 52.193314359583)
16970,7.26402307428385,51.5735978310467,substation,220000;110000,50,Station Pöppinghausen,Amprion,,SRID=4326;POINT(7.26402307428385 51.5735978310467)
16977,9.3448032994495,53.921859212674,substation,380000,50,Umspannwerk Wilster,TenneT,,SRID=4326;POINT(9.3448032994495 53.921859212674)
16982,10.4437138265662,49.6551649942231,substation,110000,50,Umspannanlage Markt Bibart,N-ERGIE,,SRID=4326;POINT(10.4437138265662 49.6551649942231)
16990,10.9729120099369,49.5585470794242,substation,380000;110000,50,Kriegenbrunn,EON_Netz,KRI,SRID=4326;POINT(10.9729120099369 49.5585470794242)
17002,10.9522691253546,49.5810516922085,substation,110000,50,Umspannwerk Kastenweiher,E.ON Netz GmbH,,SRID=4326;POINT(10.9522691253546 49.5810516922085)
17003,13.1570839842208,51.8284536600726,substation,380000,50,Umspannwerk Schönewalde,50Hertz,,SRID=4326;POINT(13.1570839842208 51.8284536600726)
17014,9.14525358467691,52.8532865681471,substation,220000;110000,50,Wechold,TenneT TSO GmbH;Avacon AG,,SRID=4326;POINT(9.14525358467691 52.8532865681471)
17015,9.14530448606996,52.204966168119,sub_station,110000,50,Westendorf,EON_Westfalen_Weser,,SRID=4326;POINT(9.14530448606996 52.204966168119)
17036,12.0823056032927,49.2975905104617,substation,380000;220000;110000,50,Schwandorf,'TenneT TSO GmbH, E.ON Netz GmbH',SD,SRID=4326;POINT(12.0823056032927 49.2975905104617)
17053,13.4684802837162,52.6325794498834,substation,110000,50,Umspannwerk Buch,Stromnetz Berlin,,SRID=4326;POINT(13.4684802837162 52.6325794498834)
17063,7.06084293064924,51.6967174918859,substation,380000;220000;110000,50,Station Kusenhorst,RWE,,SRID=4326;POINT(7.06084293064924 51.6967174918859)
17069,12.1147631443315,49.6312498646072,substation,380000;110000,,Umspannwerk Etzenricht,Tennet;EON_Netz,ETZ,SRID=4326;POINT(12.1147631443315 49.6312498646072)
17089,9.74619344509391,50.9168530378197,substation,380000;110000,50,Mecklar,EON_Netz,,SRID=4326;POINT(9.74619344509391 50.9168530378197)
17105,9.52950910971751,53.6191122646635,substation,220000;110000,50,Stade,,,SRID=4326;POINT(9.52950910971751 53.6191122646635)
17118,13.0786800019857,54.2848502590294,substation,220000;110000,,Umspannwerk Lüdershagen,50Hertz Transmission GmbH;E.ON edis AG,Lhg,SRID=4326;POINT(13.0786800019857 54.2848502590294)
17126,12.1501593304121,49.0128096824973,substation,220000,,Umspannwerk Regensburg,'TenneT TSO GmbH, E.ON Netz GmbH',RE,SRID=4326;POINT(12.1501593304121 49.0128096824973)
17129,8.06008873096018,53.6202451493659,substation,220000;155000,50,Inhausen,TenneT,INHA,SRID=4326;POINT(8.06008873096018 53.6202451493659)
17143,7.03495438361529,52.2028584486161,substation,380000;220000;110000,,Station Gronau,RWE,,SRID=4326;POINT(7.03495438361529 52.2028584486161)
17148,7.72582113944719,52.2772383372556,substation,220000;110000,50,Station Ibbenbüren,Amprion,,SRID=4326;POINT(7.72582113944719 52.2772383372556)
17162,11.8939194997183,51.4055028745159,substation,380000;110000,50,Umspannwerk Lauchstädt,50Hertz;enviaM,,SRID=4326;POINT(11.8939194997183 51.4055028745159)
17164,13.6829073545728,54.1391578234308,substation,380000;220000,,Umspannwerk Lubmin,50Hertz,,SRID=4326;POINT(13.6829073545728 54.1391578234308)
17181,13.9570102405634,53.2521695217096,substation,380000;220000,,Bertikow,50Hertz Transmission GmbH,,SRID=4326;POINT(13.9570102405634 53.2521695217096)
17182,11.3705936118853,53.6009899422631,substation,380000;110000,50,Görries,50Hertz;EON_edis,Gös,SRID=4326;POINT(11.3705936118853 53.6009899422631)
17197,12.1538688740242,49.806927605181,substation,110000,50,Umspannwerk Windischeschenbach,E.ON Netz GmbH,,SRID=4326;POINT(12.1538688740242 49.806927605181)
17200,9.79733883507629,52.0008324926114,substation,220000;110000,50,Godenau,TenneT;EON_Netz,,SRID=4326;POINT(9.79733883507629 52.0008324926114)
17212,14.4719257263548,51.5537450558924,substation,380000;110000,50,Graustein,50Hertz_Transmission;enviaM,GRS,SRID=4326;POINT(14.4719257263548 51.5537450558924)
17219,13.3686370228472,52.5031479131289,substation,380000;110000,,Berlin/Mitte,50Hertz;Stromnetz Berlin,,SRID=4326;POINT(13.3686370228472 52.5031479131289)
17242,10.8409361641256,48.237924962967,substation,380000;220000;110000,50,Umspannwerk Oberottmarshausen,Lech-Elektrizitätswerke,173A,SRID=4326;POINT(10.8409361641256 48.237924962967)
17243,9.20228236754593,53.8955293658956,substation,380000;220000;110000,50,Umspannwerk Kernkraftwerk Brunsbüttel,50Hertz Transmission,,SRID=4326;POINT(9.20228236754593 53.8955293658956)
17258,9.27446758525203,48.5496782166131,substation,380000;220000;110000,50,EnBW Umspannwerk Metzingen,Netze BW,,SRID=4326;POINT(9.27446758525203 48.5496782166131)
17298,9.80132395459727,47.6525066817698,substation,380000,50,Umspannwerk Obermooweiler,,,SRID=4326;POINT(9.80132395459727 47.6525066817698)
17299,9.64538839456135,47.7445633788602,substation,380000;110000,50,380kV-Umspannwerk Grünkraut,,,SRID=4326;POINT(9.64538839456135 47.7445633788602)
17302,7.11705646566815,49.3217397139995,substation,220000;110000,50,Umspannwerk Heinitz,,,SRID=4326;POINT(7.11705646566815 49.3217397139995)
17304,7.46182246024654,51.4088696564137,substation,110000;15000,16.7,Unterwerk Hagen-Hengstey,DB_Energie,,SRID=4326;POINT(7.46182246024654 51.4088696564137)
17322,9.01343972225428,47.8453854681849,substation,220000;110000,50,Umspannwerk Stockach,,,SRID=4326;POINT(9.01343972225428 47.8453854681849)
17323,8.25193895239999,47.6397361188795,substation,220000;110000,50,Umspannwerk Gurtweil,EnBW,,SRID=4326;POINT(8.25193895239999 47.6397361188795)
17324,8.2588769734245,47.634249863476,substation,380000;220000;110000,50,Tiengen,Amprion,,SRID=4326;POINT(8.2588769734245 47.634249863476)
17338,12.1677595765228,49.6467726970259,substation,110000,50,Umspannwerk Weiden,E.ON Netz GmbH,,SRID=4326;POINT(12.1677595765228 49.6467726970259)
17351,8.679331518398,49.9738297078222,station,,,,,,SRID=4326;POINT(8.679331518398 49.9738297078222)
17355,6.77245049011389,51.1470618221457,substation,220000;110000,50,Station Norf,,,SRID=4326;POINT(6.77245049011389 51.1470618221457)
17364,9.34910138266279,48.6088507319326,substation,110000,50,EnBW Umspannwerk Nürtingen,EnBW,,SRID=4326;POINT(9.34910138266279 48.6088507319326)
17370,9.06881633838767,53.5665845173029,substation,380000;110000,50,Alfstedt,EON_Netz,,SRID=4326;POINT(9.06881633838767 53.5665845173029)
17376,7.25465688214231,53.0266716315927,substation,380000,50,Umspannwerk Rhede,TenneT,RHED,SRID=4326;POINT(7.25465688214231 53.0266716315927)
17381,12.1870420494384,53.8158259546833,substation,380000;220000,50,Güstrow,50Hertz,,SRID=4326;POINT(12.1870420494384 53.8158259546833)
17391,6.91098386534091,50.8830875890803,station,,,,,,SRID=4326;POINT(6.91098386534091 50.8830875890803)
17392,6.9633864166927,50.8338255453437,substation,220000;110000,50,Station Bollenacker,RWE,,SRID=4326;POINT(6.9633864166927 50.8338255453437)
17395,8.24884887175382,48.8462728819425,substation,220000;110000,50,220-kV-Umspannwerk Kuppenheim,,,SRID=4326;POINT(8.24884887175382 48.8462728819425)
17397,9.37886828860009,48.8797896589396,substation,220000;110000,50,Umspannwerk Winnenden,,,SRID=4326;POINT(9.37886828860009 48.8797896589396)
17408,12.2135798088853,54.111988277111,substation,220000;110000,50,Bentwisch,E.ON edis AG,Bw,SRID=4326;POINT(12.2135798088853 54.111988277111)
17415,8.50103284239208,48.923145654646,substation,,,110kV Umspannwerk Langensteinbach,EnBW,,SRID=4326;POINT(8.50103284239208 48.923145654646)
17420,7.35312359894375,51.5758058474185,substation,380000,50,Station Mengede,RWE,,SRID=4326;POINT(7.35312359894375 51.5758058474185)
17429,13.6703967825855,52.6913456108337,substation,110000,50,Windpark Willmersdorf,EON_edis,,SRID=4326;POINT(13.6703967825855 52.6913456108337)
17448,6.53177551291354,50.390069592992,substation,380000;110000,,Station Dahlem,Amprion; Westnetz,,SRID=4326;POINT(6.53177551291354 50.390069592992)
17450,11.5164843313829,51.5843685638027,substation,380000;110000,50,Umspannwerk Klostermansfeld,50Hertz,,SRID=4326;POINT(11.5164843313829 51.5843685638027)
17457,8.45156550543441,49.0074264351597,substation,220000;110000,50,Umspannwerk Karlsruhe-Ost,Transnet BW;Stadtwerke Karlsruhe,,SRID=4326;POINT(8.45156550543441 49.0074264351597)
17460,8.3491165279576,49.0130503068203,substation,220000;110000,50,Karlsruhe-West,,,SRID=4326;POINT(8.3491165279576 49.0130503068203)
17472,12.5181586816551,51.1570965172034,substation,380000;220000;110000,50,Eula,50Hertz Transmission,,SRID=4326;POINT(12.5181586816551 51.1570965172034)
17481,8.40328854146521,52.6096767261906,substation,220000;110000,50,Station Sankt Hülfe,Amprion,,SRID=4326;POINT(8.40328854146521 52.6096767261906)
17496,9.49151378897515,53.658086681966,substation,220000,50,Abbenfleth,TenneT,,SRID=4326;POINT(9.49151378897515 53.658086681966)
17520,11.7273548166243,52.5689472154583,substation,380000;110000,50,Stendal/West,50Hertz Transmission GmbH,StW,SRID=4326;POINT(11.7273548166243 52.5689472154583)
17532,8.30806409574489,52.3456216561175,substation,380000;220000;110000,50,Wehrendorf,Amprion,,SRID=4326;POINT(8.30806409574489 52.3456216561175)
17589,12.1304479265611,54.1408589827056,sub_station,,,,,,SRID=4326;POINT(12.1304479265611 54.1408589827056)
17658,7.12315878358897,51.171616437341,substation,380000;110000,50,Station Halfeshof,,,SRID=4326;POINT(7.12315878358897 51.171616437341)
17666,7.54227183779118,50.9707616870492,substation,110000,50,Station Bomig,RWE,,SRID=4326;POINT(7.54227183779118 50.9707616870492)
17820,10.2349077099175,47.5587644555139,substation,220000;110000,50,Umspannwerk Rauhenzell,Allgäuer Überlandwerk GmbH,,SRID=4326;POINT(10.2349077099175 47.5587644555139)
17872,7.22423569173307,53.3499511334573,substation,220000;110000,50,Emden-Borßum,TenneT;EON_Netz,EMDB,SRID=4326;POINT(7.22423569173307 53.3499511334573)
17918,11.6441818009079,51.9085130247025,substation,220000;110000,50,Umspannwerk Förderstedt,50Hertz,MD 38,SRID=4326;POINT(11.6441818009079 51.9085130247025)
17973,6.73218414896695,51.4594337271001,substation,220000;110000,50,Station Ruhrort,Amprion,,SRID=4326;POINT(6.73218414896695 51.4594337271001)
17974,6.72247759675524,51.4798054953717,substation,380000;220000;110000,50,Station Beeck,,,SRID=4326;POINT(6.72247759675524 51.4798054953717)
17975,6.72821309155857,51.487854781717,substation,220000,50,,,,SRID=4326;POINT(6.72821309155857 51.487854781717)
17978,6.72890611951318,51.4960799488012,substation,220000,50,,,,SRID=4326;POINT(6.72890611951318 51.4960799488012)
17979,6.74539440344353,51.4986616681508,substation,220000,,,,,SRID=4326;POINT(6.74539440344353 51.4986616681508)
17980,6.74124206177994,51.5130747788377,substation,380000;220000;110000,50,,ThyssenKrupp,,SRID=4326;POINT(6.74124206177994 51.5130747788377)
17981,6.71774909622404,51.5228052141472,substation,110000,,Station Papierfabrik,RWE,,SRID=4326;POINT(6.71774909622404 51.5228052141472)
18000,8.61667319348726,48.0659747898533,substation,380000;110000,50,Umspannwerk Trossingen,,TRSNG,SRID=4326;POINT(8.61667319348726 48.0659747898533)
18010,6.26969137516539,50.8301019270036,sub_station,,,,,,SRID=4326;POINT(6.26969137516539 50.8301019270036)
18012,12.7892186271394,50.6270206993356,substation,380000;110000,50,Umspannwerk Zwönitz,,Zw,SRID=4326;POINT(12.7892186271394 50.6270206993356)
18035,7.09807992035451,51.3766848185554,station,,,Station Kupferdreh,WSW,,SRID=4326;POINT(7.09807992035451 51.3766848185554)
18057,7.29690721459397,53.5330285470322,substation,110000,50,Marienhafe,EON_Netz,,SRID=4326;POINT(7.29690721459397 53.5330285470322)
18078,13.4888670439857,52.3940953194168,substation,110000,50,E.ON edis Umspannwerk Schönefeld Wohnungsbau,EON_edis,SfN,SRID=4326;POINT(13.4888670439857 52.3940953194168)
18090,7.58911887543524,47.8069332652549,substation,,50,,,,SRID=4326;POINT(7.58911887543524 47.8069332652549)
18101,6.7315629949368,51.374597841038,station,,,,,,SRID=4326;POINT(6.7315629949368 51.374597841038)
18126,9.43564238350543,52.1897604868972,substation,,50,Bad Münder,EON_Netz,BMUE,SRID=4326;POINT(9.43564238350543 52.1897604868972)
18132,8.104895072518,52.2642974433952,substation,220000;110000,50,Station Lüstringen,Amprion,,SRID=4326;POINT(8.104895072518 52.2642974433952)
18218,7.03169585613161,51.609437695162,substation,220000,,Station Bellendorf,RWE,,SRID=4326;POINT(7.03169585613161 51.609437695162)
18220,8.21137581700748,51.8879595572556,substation,,,,,,SRID=4326;POINT(8.21137581700748 51.8879595572556)
18221,8.47130677635285,50.0972089406338,substation,380000;110000,50,Umspannwerk Kriftel,Amprion,,SRID=4326;POINT(8.47130677635285 50.0972089406338)
18234,8.1206364439221,48.705351098721,substation,220000;110000,50,Bühl,EnBW,,SRID=4326;POINT(8.1206364439221 48.705351098721)
18248,11.3060342512438,48.0355387096995,sub_station,,,,Isar-Amperwerke,8012,SRID=4326;POINT(11.3060342512438 48.0355387096995)
18266,14.270839554638,53.0962882487316,substation,220000;110000,50,Vierraden,50Hertz Transmission GmbH,,SRID=4326;POINT(14.270839554638 53.0962882487316)
18268,14.0336979604697,53.5078673815377,substation,220000;110000,,Pasewalk,50Hertz Transmission GmbH;E.ON edis AG,,SRID=4326;POINT(14.0336979604697 53.5078673815377)
18301,11.129390055613,50.9835971304111,substation,110000;10000,50,Erfurt/Hochstedt,SWE_Netz,ErH,SRID=4326;POINT(11.129390055613 50.9835971304111)
18306,13.3998299416175,53.7944487672401,substation,220000,50,Umspannwerk Windpark Iven,50Hertz Transmission,,SRID=4326;POINT(13.3998299416175 53.7944487672401)
18386,12.4994099386673,52.4052153767579,substation,220000;110000,,Brandenburg-West,50Hertz Transmission GmbH,,SRID=4326;POINT(12.4994099386673 52.4052153767579)
18389,13.4431581832594,52.5176969948547,substation,10000;750,,U-Bahn Gleichrichterwerk Weberwiese,Berliner Verkehrsbetriebe,,SRID=4326;POINT(13.4431581832594 52.5176969948547)
18412,8.49691557234116,49.2219301769834,substation,110000;15000,16.7,Unterwerk Wiesental,DB Energie GmbH,,SRID=4326;POINT(8.49691557234116 49.2219301769834)
18443,7.31712789579723,53.1282300162597,substation,110000,50,Stapelmoor,EWE,STAP,SRID=4326;POINT(7.31712789579723 53.1282300162597)
18466,9.88562710780253,48.3041011265161,substation,380000;220000;110000,50,Umspannwerk Dellmensingen,EnBW,,SRID=4326;POINT(9.88562710780253 48.3041011265161)
18475,8.29900236498853,48.9743373438792,substation,110000,50,110kV-Umspannwerk Forchheim,,,SRID=4326;POINT(8.29900236498853 48.9743373438792)
18496,9.04740403477722,51.1677782457176,substation,400000,,,E.ON Kraftwerke GmbH,,SRID=4326;POINT(9.04740403477722 51.1677782457176)
18529,10.1174968737465,48.8970343762975,substation,380000;220000;110000,,Umspannwerk Goldshöfe,EnBW,,SRID=4326;POINT(10.1174968737465 48.8970343762975)
18531,6.81367546112646,49.7248085243865,substation,380000;110000,50,Station Osburg,Amprion; Westnetz,,SRID=4326;POINT(6.81367546112646 49.7248085243865)
18556,8.98953407910688,50.0602319205529,substation,380000;110000,50,Karlstein,Amprion,,SRID=4326;POINT(8.98953407910688 50.0602319205529)
18560,7.0128248442432,50.6177866313836,substation,220000;110000,50,Station Meckenheim,Westnetz (RWE),,SRID=4326;POINT(7.0128248442432 50.6177866313836)
18567,7.99290430064441,51.6836915536179,substation,380000,50,Station Uentrop,RWE,,SRID=4326;POINT(7.99290430064441 51.6836915536179)
18581,7.99392025868091,51.8230845961567,substation,380000;110000,50,Station Enniger,Amprion,,SRID=4326;POINT(7.99392025868091 51.8230845961567)
18594,9.22807251862032,51.81241701309,substation,380000;110000,,Vörden,transpower,,SRID=4326;POINT(9.22807251862032 51.81241701309)
18604,8.85635924290279,52.034622079703,substation,110000,50,,,,SRID=4326;POINT(8.85635924290279 52.034622079703)
18605,8.87292809976132,48.3100689647934,substation,380000,50,EnBW Umspannwerk Engstlatt,EnBW,ENGST,SRID=4326;POINT(8.87292809976132 48.3100689647934)
18608,8.62480362479633,51.4279245514002,substation,380000;110000,50,Station Nehden,Amprion,,SRID=4326;POINT(8.62480362479633 51.4279245514002)
18618,7.71860730754673,51.5341984398315,substation,380000;110000,,Station Unna,Amprion,,SRID=4326;POINT(7.71860730754673 51.5341984398315)
18624,8.4089637321541,53.1902439578702,substation,220000,,Huntorf,EON_Netz,HUNT,SRID=4326;POINT(8.4089637321541 53.1902439578702)
18638,9.85135384165645,51.6491614557499,substation,220000;110000,50,Hardegsen,TenneT;EON_Netz,,SRID=4326;POINT(9.85135384165645 51.6491614557499)
18667,9.04558215624615,48.9028242410532,substation,380000;220000;110000,50,380kV-Umspannwerk Pulverdingen,EnBW Transportnetze AG,,SRID=4326;POINT(9.04558215624615 48.9028242410532)
18733,7.20855838765646,51.5611231830385,station,110000,50,Station Recklinghausen,RWE,,SRID=4326;POINT(7.20855838765646 51.5611231830385)
18761,6.81448638614374,49.3282526678532,station,,,UA Hülzweiler,VSE,,SRID=4326;POINT(6.81448638614374 49.3282526678532)
18808,13.5141343417909,52.4846387378296,substation,110000,50,Umspannwerk Trautenauer Straße,Stromnetz Berlin,,SRID=4326;POINT(13.5141343417909 52.4846387378296)
18822,8.53869200579677,49.386005340428,substation,110000,50,Umspannwerk Brühl,EnBW,,SRID=4326;POINT(8.53869200579677 49.386005340428)
18825,8.67371486434421,49.2904577643466,substation,380000;220000;110000,50,Umspannwerk Wiesloch,EnBW,,SRID=4326;POINT(8.67371486434421 49.2904577643466)
18857,10.3219379944555,47.6829663453327,substation,220000,50,Schaltwerk Kempten,,,SRID=4326;POINT(10.3219379944555 47.6829663453327)
18844,13.3155119086851,52.5220164060979,substation,380000;110000,50,Umspannwerk Charlottenburg,50Hertz,,SRID=4326;POINT(13.3155119086851 52.5220164060979)
18869,6.81213751027014,51.5196177919543,substation,220000;110000,50,Station Handbach,Amprion,,SRID=4326;POINT(6.81213751027014 51.5196177919543)
18983,9.37759356051825,48.8126058910247,substation,380000;110000,,EnBW Umspannwerk Endersbach,Netze BW,,SRID=4326;POINT(9.37759356051825 48.8126058910247)
19037,7.19511698511998,52.8699045713252,substation,380000;110000,50,Niederlangen,TenneT,NLAN,SRID=4326;POINT(7.19511698511998 52.8699045713252)
19078,8.04907684246267,47.5510569029898,substation,380000;220000,50,Laufenburg,,,SRID=4326;POINT(8.04907684246267 47.5510569029898)
19101,13.7106853313631,48.5193048377351,substation,220000,,Jochenstein,,,SRID=4326;POINT(13.7106853313631 48.5193048377351)
19157,7.72438965933793,51.409361447684,substation,220000;110000,50,Umspannwerk Bixterheide,Amprion,,SRID=4326;POINT(7.72438965933793 51.409361447684)
19193,7.39127201848323,51.4876399462906,station,110000,50,Station Technopark,DEW21,,SRID=4326;POINT(7.39127201848323 51.4876399462906)
19234,10.9367106809496,48.4013136669481,substation,380000;110000,50,Umspannwerk Lechhausen; Übernahmestation Lechhausen,Lechwerke;Stadtwerke Augsburg,613 U;1000,SRID=4326;POINT(10.9367106809496 48.4013136669481)
19287,6.99666887845368,49.3756396651444,substation,380000;220000;110000,50,Umspannwerk Uchtelfangen,Amprion,,SRID=4326;POINT(6.99666887845368 49.3756396651444)
19293,7.21334904522536,49.1681638217025,substation,,,,Pfalzwerke AG,,SRID=4326;POINT(7.21334904522536 49.1681638217025)
19354,8.51995689971892,50.0493481002292,substation,380000,,Kabeleinführung 380 kV,Süwag,,SRID=4326;POINT(8.51995689971892 50.0493481002292)
19412,12.786405459257,50.6294093730121,substation,110000,50,,,,SRID=4326;POINT(12.786405459257 50.6294093730121)
19459,6.90263529026016,51.0146925232403,substation,110000,50,,Rheinenergie,,SRID=4326;POINT(6.90263529026016 51.0146925232403)
19503,14.9465238709417,51.0625934682669,substation,380000;110000,50,Umspannwerk Hagenwerder,50Hertz,HGW,SRID=4326;POINT(14.9465238709417 51.0625934682669)
19546,11.853115610111,53.0865543048908,substation,380000;110000,,Umspannwerk Perleberg,50Hertz;EON_Avacon,,SRID=4326;POINT(11.853115610111 53.0865543048908)
19641,13.2312389342773,52.5394076927838,substation,110000,50,Umspannwerk Uklei,Vattenfall Europe AG,,SRID=4326;POINT(13.2312389342773 52.5394076927838)
19667,8.61862708170849,50.0922508648223,substation,380000,50,Umspannwerk Frankfurt Südwest,,,SRID=4326;POINT(8.61862708170849 50.0922508648223)
19705,7.16756105795855,51.3899466204847,substation,380000;220000;110000,50,Station Hattingen,Amprion,,SRID=4326;POINT(7.16756105795855 51.3899466204847)
19780,8.95181563691085,48.7424807713638,substation,110000,50,Netze BW Umspannwerk Magstadt,Netze BW,,SRID=4326;POINT(8.95181563691085 48.7424807713638)
19782,7.27894550476066,51.4722703777908,substation,220000;110000,50,Station Laer,Amprion,,SRID=4326;POINT(7.27894550476066 51.4722703777908)
19797,6.92009759087818,49.9705403867378,substation,220000;110000,,Station Wengerohr,Amprion; Westnetz,,SRID=4326;POINT(6.92009759087818 49.9705403867378)
19815,11.5991212695594,49.3943183159599,substation,110000,50,Umspannwerk Lauterhofen,E.ON Netz GmbH,,SRID=4326;POINT(11.5991212695594 49.3943183159599)
19824,7.18050364602721,51.4526103742266,substation,110000,,Umspannwerk Eppendorf,Stadtwerke Bochum,7057 UWEP,SRID=4326;POINT(7.18050364602721 51.4526103742266)
19838,7.17944508986728,51.4721618319501,substation,220000;110000,,Station Bochum,Amprion,,SRID=4326;POINT(7.17944508986728 51.4721618319501)
19839,7.18000507500302,51.4749493661293,substation,110000,50,Station Bochum,RWE,,SRID=4326;POINT(7.18000507500302 51.4749493661293)
19850,9.95087611728543,54.322789166251,substation,110000,50,Umspannwerk Felde,Schleswig-Holstein Netz AG,,SRID=4326;POINT(9.95087611728543 54.322789166251)
19897,7.29713409054153,51.5909819373304,station,110000,,Station Habinghorst,,,SRID=4326;POINT(7.29713409054153 51.5909819373304)
19979,6.82245780901239,51.342506388074,substation,110000,50,Station Lintorf,RWE,,SRID=4326;POINT(6.82245780901239 51.342506388074)
20002,10.8023817394479,53.8976067893924,substation,380000;110000,,HGÜ Baltic-Cable - Stromrichterstation Herrenwyk,,,SRID=4326;POINT(10.8023817394479 53.8976067893924)
20003,10.7607917169459,53.9097263525196,substation,380000;220000;110000,,Umspannwerk Siems,,,SRID=4326;POINT(10.7607917169459 53.9097263525196)
20041,12.1301723920288,47.9131911337865,substation,220000,,Umspannwerk Marienberg,'Tennet TSO GmbH, E.ON Netz GmbH',,SRID=4326;POINT(12.1301723920288 47.9131911337865)
20049,10.8638246538841,48.5469498675136,substation,380000;110000,,Umspannwerk Meitingen,Elektrizitätswerke Augsburg,122 U,SRID=4326;POINT(10.8638246538841 48.5469498675136)
20066,10.7027362753295,47.8264651606571,substation,380000;110000,50,Umspannwerk Bidingen Nr. 697 S,LEW,,SRID=4326;POINT(10.7027362753295 47.8264651606571)
20086,12.2208353828608,48.5857330038548,substation,220000;110000,50,Umspannwerk Altheim,'TenneT TSO GmbH, E.ON Netz GmbH',AHM,SRID=4326;POINT(12.2208353828608 48.5857330038548)
20107,7.25262804596903,51.4045853539239,substation,110000,50,US Steinenhaus,Aktiengesellschaft für Versorgungsunternehmen,,SRID=4326;POINT(7.25262804596903 51.4045853539239)
20224,7.54305899985672,51.4532264020969,substation,110000,,Station Holzen Mast 30,RWE,,SRID=4326;POINT(7.54305899985672 51.4532264020969)
20232,6.75550687954069,49.3648623760024,substation,220000,50,Dieffeln,VSE,,SRID=4326;POINT(6.75550687954069 49.3648623760024)
20355,7.1759044499001,51.4755782660252,substation,220000,,UW Stahlwerk ThyssenKrupp Nirosta,,,SRID=4326;POINT(7.1759044499001 51.4755782660252)
20419,10.4937334029242,48.2473351692675,substation,,,,,,SRID=4326;POINT(10.4937334029242 48.2473351692675)
20483,9.31808937194197,54.7159951058713,substation,380000;220000;110000;20000,50,Flensburg,TenneT,FLEN,SRID=4326;POINT(9.31808937194197 54.7159951058713)
20497,6.59298697025779,50.5733967885382,station,,,Station Wallenthal,RWE,,SRID=4326;POINT(6.59298697025779 50.5733967885382)
20505,7.01972150621525,51.0927333864525,station,,,Station Balken,,,SRID=4326;POINT(7.01972150621525 51.0927333864525)
20540,7.34579761067045,52.5865082687783,substation,110000,,,,,SRID=4326;POINT(7.34579761067045 52.5865082687783)
20584,7.95805107683987,47.5956985975318,substation,380000;220000,50,Lastverteilung/Schaltanlage Kühmoos,Schluchseewerk AG,,SRID=4326;POINT(7.95805107683987 47.5956985975318)
20586,10.3917812465039,48.5185007589868,substation,380000,,Umspannwerk Gundelfingen,Amprion,,SRID=4326;POINT(10.3917812465039 48.5185007589868)
20603,7.98513586462506,50.8422318690621,substation,220000;110000,50,Station Eiserfeld,Amprion,,SRID=4326;POINT(7.98513586462506 50.8422318690621)
20622,6.21106853508006,49.9586167733993,substation,220000,50,SA Bauler,Amprion,,SRID=4326;POINT(6.21106853508006 49.9586167733993)
20623,6.17793030343284,49.9530662660969,substation,220000,,Vianden,SEO,,SRID=4326;POINT(6.17793030343284 49.9530662660969)
20628,6.53854452188782,49.8553421311581,sub_station,110000,,Station Welschbillig,Westnetz,,SRID=4326;POINT(6.53854452188782 49.8553421311581)
20806,7.25209608128888,51.2217947474057,station,,,Station Luckhausen,,,SRID=4326;POINT(7.25209608128888 51.2217947474057)
20638,6.76606703967986,49.3600764106113,substation,220000;110000,50,Station Saarwellingen,Amprion,,SRID=4326;POINT(6.76606703967986 49.3600764106113)
20664,7.1482636709663,49.2851261916415,substation,110000,50,UA Rohrbach,,,SRID=4326;POINT(7.1482636709663 49.2851261916415)
20699,6.74970891904792,49.3651765889634,substation,220000,50,UA Obergraben,Amprion,,SRID=4326;POINT(6.74970891904792 49.3651765889634)
20701,6.45561428583523,50.8424963908051,substation,,,,,,SRID=4326;POINT(6.45561428583523 50.8424963908051)
20705,8.0204168447434,50.9236178347754,substation,220000,50,Setzer Wiese,RWE,,SRID=4326;POINT(8.0204168447434 50.9236178347754)
20727,10.3191424115997,47.6827354102476,substation,220000;110000,50,Umspannwerk Kempten-Au,,,SRID=4326;POINT(10.3191424115997 47.6827354102476)
20741,12.7475855997565,48.1486110964484,substation,220000;110000,50,Umspannwerk Pirach,'TenneT TSO GmbH, E.ON Netz GmbH',PI,SRID=4326;POINT(12.7475855997565 48.1486110964484)
20742,13.0028160714901,48.2619224732965,substation,220000,,Umspannwerk Simbach,'Tennet, E.on Netz',,SRID=4326;POINT(13.0028160714901 48.2619224732965)
20763,9.1482793085378,48.7001689598988,substation,300000,,Umspannwerk Leinfelden,EnBW,,SRID=4326;POINT(9.1482793085378 48.7001689598988)
20770,6.7923053085893,49.8531219066301,station,,,Station Bekond,,,SRID=4326;POINT(6.7923053085893 49.8531219066301)
20786,6.72369721719053,51.3556945831009,substation,220000;110000,50,Station Mündelheim,RWE,,SRID=4326;POINT(6.72369721719053 51.3556945831009)
20798,6.72031084021632,51.3915332720268,substation,220000,,Station Rheinhausen,Amprion,,SRID=4326;POINT(6.72031084021632 51.3915332720268)
20808,7.23321703731888,51.2324679262529,substation,380000;110000,50,Station Linde,RWE,,SRID=4326;POINT(7.23321703731888 51.2324679262529)
20925,6.54239562305407,51.2994795722864,substation,220000;110000,50,Station Edelstahl Krefeld,,,SRID=4326;POINT(6.54239562305407 51.2994795722864)
20936,11.8108075403458,50.1837765619904,substation,380000;220000;110000,50,Umspannwerk Mechlenreuth,TenneT TSO GmbH;E.ON Netz GmbH,MH,SRID=4326;POINT(11.8108075403458 50.1837765619904)
20937,6.72645965862303,49.2724502256866,substation,,,UA Überherrn,,,SRID=4326;POINT(6.72645965862303 49.2724502256866)
20956,6.09615127806922,51.0541500536168,substation,,,,,,SRID=4326;POINT(6.09615127806922 51.0541500536168)
21170,12.3244580011748,49.6399773206679,substation,110000,50,Umspannwerk Vohenstrauß,E.ON Netz GmbH,VOH,SRID=4326;POINT(12.3244580011748 49.6399773206679)
21233,10.4204291523203,52.1652237833437,substation,220000;110000,50,,Salzgitter AG,,SRID=4326;POINT(10.4204291523203 52.1652237833437)
21269,7.04940261601196,49.3447125895415,station,,,,,,SRID=4326;POINT(7.04940261601196 49.3447125895415)
21429,7.03129829049402,49.3308468064471,substation,220000;110000,,,,,SRID=4326;POINT(7.03129829049402 49.3308468064471)
21544,8.86154291947956,47.8064253485817,substation,220000;110000,50,Beuren,,,SRID=4326;POINT(8.86154291947956 47.8064253485817)
21632,6.78780472156301,51.5334789004742,substation,110000,50,Station Wehofen,RWE;EVO,,SRID=4326;POINT(6.78780472156301 51.5334789004742)
21683,7.20601595211315,53.341265379411,substation,220000;110000,,Umspannwerk Kraftwerk Emden,,EMDE,SRID=4326;POINT(7.20601595211315 53.341265379411)
21719,6.4990443656402,51.748717409007,substation,110000;15000,16.7,Unterwerk Mehrhoog,DB_Energie,,SRID=4326;POINT(6.4990443656402 51.748717409007)
21741,7.00885994061421,51.1741881006089,substation,380000;110000,50,Station Ohligs,Amprion,,SRID=4326;POINT(7.00885994061421 51.1741881006089)
21822,7.17033754623969,49.3558355158629,substation,220000,,Saarstahl,,,SRID=4326;POINT(7.17033754623969 49.3558355158629)
21923,6.60787400666425,49.4928659018471,station,,,,,,SRID=4326;POINT(6.60787400666425 49.4928659018471)
22106,7.1342321026608,50.8073629903027,sub_station,,,,,,SRID=4326;POINT(7.1342321026608 50.8073629903027)
22158,9.2507958453077,53.1143538767995,substation,380000;220000;110000,50,Sottrum,EON_Netz,,SRID=4326;POINT(9.2507958453077 53.1143538767995)
22179,12.1741304921522,54.1615406668055,substation,400000,,Kabelüberwachungsstation HGÜ Kontek,,,SRID=4326;POINT(12.1741304921522 54.1615406668055)
22202,7.88965790453282,52.2773874379844,substation,380000;220000;110000,50,Station Westerkappeln,Amprion,,SRID=4326;POINT(7.88965790453282 52.2773874379844)
22500,9.1327173481005,49.2395372390583,substation,110000,50,Station Wimpfen,RWE,,SRID=4326;POINT(9.1327173481005 49.2395372390583)
22513,7.40354444822177,51.6444495178789,substation,380000,50,Station Lippe,RWE,,SRID=4326;POINT(7.40354444822177 51.6444495178789)
22735,7.11679258023405,50.8070216613415,substation,,,,Stadtwerke Troisdorf,,SRID=4326;POINT(7.11679258023405 50.8070216613415)
23039,7.94281008665733,47.6530214005328,plant,,,Kavernenkraftwerk Wehr,,,SRID=4326;POINT(7.94281008665733 47.6530214005328)
23051,7.95921958358891,47.5783600004331,plant,,,Kavernenkraftwerk Säckingen,Schluchseewerk AG,,SRID=4326;POINT(7.95921958358891 47.5783600004331)
23122,10.6415011992739,53.9191079773371,substation,220000;110000,50,Lübeck,TenneT;Schleswig-Holstein Netz,,SRID=4326;POINT(10.6415011992739 53.9191079773371)
23193,7.45130176031297,51.4130023629132,plant,,,Koepchenwerk,RWE Power AG,,SRID=4326;POINT(7.45130176031297 51.4130023629132)
23244,11.6784303584689,52.2140917987707,sub_station,110000,50,,,,SRID=4326;POINT(11.6784303584689 52.2140917987707)
23254,7.93815715011479,51.0106958950271,substation,220000;110000,50,Station Altenkleusheim,RWE,,SRID=4326;POINT(7.93815715011479 51.0106958950271)
23276,10.1851125391015,49.5263633008351,station,,,Umspannwerk Wallmersbach,,,SRID=4326;POINT(10.1851125391015 49.5263633008351)
23292,11.8075402336937,48.4553719835162,substation,220000;110000,,Zolling - Irsching,,ZOL,SRID=4326;POINT(11.8075402336937 48.4553719835162)
23483,9.23493566064173,53.9168334876618,substation,380000;320000;250000,50;0,Konverterstation Büttel,,,SRID=4326;POINT(9.23493566064173 53.9168334876618)
23538,11.4747302318416,50.6039905453239,plant,220000,50,Pumpspeicherkraftwerk Hohenwarte II,Vattenfall AG,,SRID=4326;POINT(11.4747302318416 50.6039905453239)
23549,13.7095319040861,52.5398287142077,substation,380000;220000;110000,50,Neuenhagen,50Hertz Transmission GmbH,NHG TCC,SRID=4326;POINT(13.7095319040861 52.5398287142077)
23686,7.32428206403666,51.621387962042,substation,220000,50,Rheinzink,,,SRID=4326;POINT(7.32428206403666 51.621387962042)
23781,10.5557181603438,49.9778251704739,substation,110000,,Umspannwerk Knetzgau,Unterfränkische Überlandzentrale eG,KNEZ,SRID=4326;POINT(10.5557181603438 49.9778251704739)
23881,7.25794423106007,52.9812483934163,substation,380000;320000,50;0,Dörpen West,TenneT Offshore GmbH,,SRID=4326;POINT(7.25794423106007 52.9812483934163)
23977,9.69459403695515,49.2324915048506,substation,380000;110000,50,Umspannwerk Kupferzell,EnBW,,SRID=4326;POINT(9.69459403695515 49.2324915048506)
23981,8.91867016560809,48.6610978007351,station,,,,,,SRID=4326;POINT(8.91867016560809 48.6610978007351)
23991,9.09181854448578,49.294726208078,substation,380000;220000;110000,50,Umspannwerk Hüffenhardt,,,SRID=4326;POINT(9.09181854448578 49.294726208078)
24065,9.44693626147809,49.5902534921382,substation,380000;110000,50,Umspannwerk Höpfingen,EnBW,,SRID=4326;POINT(9.44693626147809 49.5902534921382)
24190,7.91079673703188,48.5012808155497,substation,220000;110000,50,Umspannwerk Weier,EnBW,,SRID=4326;POINT(7.91079673703188 48.5012808155497)
24230,8.58865801024423,49.815472567258,substation,220000;110000,50,Umspannanlage Pfungstadt,RWE,,SRID=4326;POINT(8.58865801024423 49.815472567258)
24288,11.470371091878,50.9303732846302,substation,380000;110000,50,Großschwabhausen,50Hertz;EON_TEAG,,SRID=4326;POINT(11.470371091878 50.9303732846302)
24302,9.7741877489068,50.5288142178347,substation,380000;110000,50,UW Dipperz,Tennet,,SRID=4326;POINT(9.7741877489068 50.5288142178347)
24363,10.9909064518055,50.5735635317217,substation,380000;110000,50,Umspannwerk Altenfeld,50Hertz,,SRID=4326;POINT(10.9909064518055 50.5735635317217)
24445,7.51948813082321,50.3570761222087,substation,,,Station Rübenach,Westnetz; Energienetze Mittelrhein,,SRID=4326;POINT(7.51948813082321 50.3570761222087)
24446,10.1789348237874,54.3388198256183,plant,,,Gemeinschaftskraftwerk Kiel,,,SRID=4326;POINT(10.1789348237874 54.3388198256183)
24464,8.41938497586642,49.6337976943801,substation,380000;220000,50,Station Bürstadt,RWE,,SRID=4326;POINT(8.41938497586642 49.6337976943801)
24465,8.41755872154693,49.63881894682,substation,110000,50,Umspannanlage Rosengarten,EWR,,SRID=4326;POINT(8.41755872154693 49.63881894682)
24505,6.96734281913887,51.4908672883442,substation,220000,50,LMG,,,SRID=4326;POINT(6.96734281913887 51.4908672883442)
24606,10.3884700861007,52.1513636144969,substation,220000,,,,,SRID=4326;POINT(10.3884700861007 52.1513636144969)
24623,8.79127923709399,51.4266664633334,substation,110000,50,,RWE,,SRID=4326;POINT(8.79127923709399 51.4266664633334)
24628,9.48789403274474,53.6365575795997,substation,220000,50,Götzdorf,,,SRID=4326;POINT(9.48789403274474 53.6365575795997)
24651,6.47479754529812,49.9224757026994,substation,380000;220000;110000,50,Station Niederstedem,Amprion; Westnetz,,SRID=4326;POINT(6.47479754529812 49.9224757026994)
24652,6.7022873159826,49.8289942252717,substation,220000;110000,50,Station Quint,Amprion; Westnetz,,SRID=4326;POINT(6.7022873159826 49.8289942252717)
24653,6.53979835733315,49.6416513721677,station,110000,50,Station Tobiashaus,Westnetz,,SRID=4326;POINT(6.53979835733315 49.6416513721677)
24666,8.06824032155551,49.577817746697,substation,220000;110000,50,Umspannwerk Kerzenheim,Pfalzwerke,,SRID=4326;POINT(8.06824032155551 49.577817746697)
24677,11.4339383467067,50.6527716836668,substation,220000,,Stahlwerk Thüringen,,,SRID=4326;POINT(11.4339383467067 50.6527716836668)
24682,8.3135197430278,49.0090092094419,substation,380000;220000;110000,50,Karlsruhe-Daxlanden,EnBW,,SRID=4326;POINT(8.3135197430278 49.0090092094419)
24696,7.86403945083049,50.7684190591778,substation,380000;220000;110000,50,Station Dauersberg,RWE,,SRID=4326;POINT(7.86403945083049 50.7684190591778)
24700,7.92896634922386,50.817858770454,sub_station,,,,,,SRID=4326;POINT(7.92896634922386 50.817858770454)
24703,7.64047218402019,50.3851618931631,substation,110000,,Station Urbar,,,SRID=4326;POINT(7.64047218402019 50.3851618931631)
24745,8.35237703769328,49.4212753990394,substation,220000;110000,50,Netzleitstelle Mutterstadt,Pfalzwerke,,SRID=4326;POINT(8.35237703769328 49.4212753990394)
24748,8.40840453331232,49.5285425015196,substation,220000,50,BASF,,,SRID=4326;POINT(8.40840453331232 49.5285425015196)
24751,8.19487626437767,49.5643213470057,station,110000,,,,,SRID=4326;POINT(8.19487626437767 49.5643213470057)
24758,8.54671161874385,49.4408180902741,substation,220000;110000,50,Station Rheinau,Net,,SRID=4326;POINT(8.54671161874385 49.4408180902741)
24767,8.5443261879887,49.435602491052,station,110000,50,Umspannwerk Rheinau,EnBW,,SRID=4326;POINT(8.5443261879887 49.435602491052)
24878,10.38577386086,51.0017886201253,substation,380000;110000,50,Eisenach,50Hertz,,SRID=4326;POINT(10.38577386086 51.0017886201253)
24896,8.51205257180724,49.2939490591889,substation,220000;110000,50,Umspannwerk Altlußheim,Netze BW GmbH;Transnet BW GmbH,,SRID=4326;POINT(8.51205257180724 49.2939490591889)
24918,7.43349358676305,50.4365410949915,substation,220000,,,,,SRID=4326;POINT(7.43349358676305 50.4365410949915)
24987,11.7714326348255,50.2096882560446,substation,110000,50,Umspannwerk Münchberg,E.ON Netz GmbH,MUEN,SRID=4326;POINT(11.7714326348255 50.2096882560446)
25021,7.25561050862227,51.490020507059,substation,110000,,Station Elbestraße,RWE,,SRID=4326;POINT(7.25561050862227 51.490020507059)
25022,7.21580009557661,51.2210060278266,substation,,50,Station Ronsdorf,RWE,,SRID=4326;POINT(7.21580009557661 51.2210060278266)
25027,7.31934052332936,49.3048721912331,substation,220000;110000,50,Beeden,Pfalzwerke,,SRID=4326;POINT(7.31934052332936 49.3048721912331)
25052,9.259351399634,51.06007529587,substation,380000;110000,50,Umspannwerk Borken,TenneT,,SRID=4326;POINT(9.259351399634 51.06007529587)
25053,12.044984425664,50.7812559772441,substation,380000;220000;110000,,Umspannwerk Weida,50Hertz,,SRID=4326;POINT(12.044984425664 50.7812559772441)
25054,8.66380458073103,49.3600814505427,substation,220000;110000,50,Umspannanlage Heidelberg-Süd,Stadtwerke Heidelberg Netze GmbH,,SRID=4326;POINT(8.66380458073103 49.3600814505427)
25055,13.902474934826,51.8747240353723,substation,380000;110000,50,Umspannwerk Ragow,50Hertz,RAG,SRID=4326;POINT(13.902474934826 51.8747240353723)
25079,9.51424554651402,51.2590220984252,substation,380000;110000,,Umspannwerk Bergshausen,TenneT,,SRID=4326;POINT(9.51424554651402 51.2590220984252)
25080,7.19597956526293,51.4115752304649,substation,220000,,Station Welper,RWE,,SRID=4326;POINT(7.19597956526293 51.4115752304649)
25122,13.3823862155837,51.3561064690367,substation,380000;110000,50,Umspannwerk Streumen,50Hertz,STR,SRID=4326;POINT(13.3823862155837 51.3561064690367)
25131,8.1221567484743,53.5658316703247,substation,220000,50,Atlantic,,,SRID=4326;POINT(8.1221567484743 53.5658316703247)
25178,14.5080388725827,51.4136770241212,substation,380000,50,Umspannwerk Bärwalde,50Hertz,,SRID=4326;POINT(14.5080388725827 51.4136770241212)
25179,14.2192782637512,51.1206661722258,substation,380000;110000,,Umspannwerk Schmölln,50Hertz;ENSO,,SRID=4326;POINT(14.2192782637512 51.1206661722258)
25313,9.07622958721921,49.3633957682164,substation,220000;110000,50,Obrigheim,,,SRID=4326;POINT(9.07622958721921 49.3633957682164)
25391,9.92380227920131,51.8975528476859,substation,220000,50,Erzhausen,,,SRID=4326;POINT(9.92380227920131 51.8975528476859)
25413,8.95370127395053,49.567431667076,substation,220000;110000,50,Beerfelden,,,SRID=4326;POINT(8.95370127395053 49.567431667076)
25428,8.62717182511157,49.5436059691192,station,220000;110000,50,Umspannwerk Weinheim,,,SRID=4326;POINT(8.62717182511157 49.5436059691192)
25822,12.8812946109678,50.5186248331588,substation,380000,,Markersbach,,,SRID=4326;POINT(12.8812946109678 50.5186248331588)
25890,12.2428453037048,50.5674279683739,substation,220000;110000,50,Umspannwerk Herlasgrün,50Hertz;enviaM,Her,SRID=4326;POINT(12.2428453037048 50.5674279683739)
26016,8.53147032884844,50.0478366285239,substation,380000,50,Station Kelsterbach,Amprion,,SRID=4326;POINT(8.53147032884844 50.0478366285239)
26056,8.68414374096996,51.4356404646355,substation,110000,50,,,,SRID=4326;POINT(8.68414374096996 51.4356404646355)
26293,9.56708385871398,51.3252377865318,substation,220000;110000,50,Sandershausen,TenneT,,SRID=4326;POINT(9.56708385871398 51.3252377865318)
26308,12.4772720467948,50.7531071174866,substation,220000;110000,50,Crossen,50Hertz,,SRID=4326;POINT(12.4772720467948 50.7531071174866)
26572,14.4291278252622,51.8132595286339,substation,110000,,,,,SRID=4326;POINT(14.4291278252622 51.8132595286339)
26580,13.0025691381248,50.8659702137178,substation,220000;110000,50,Niederwiesa,eins-Energie,Nws,SRID=4326;POINT(13.0025691381248 50.8659702137178)
27499,7.31133818987887,53.1257708136614,substation,380000;150000;110000,50;0,Diele,TenneT;EON_Netz,DIEL,SRID=4326;POINT(7.31133818987887 53.1257708136614)
28395,7.55518071296964,51.3752428577322,sub_station,,,,Mark E,,SRID=4326;POINT(7.55518071296964 51.3752428577322)
28606,8.5602390698114,49.9921018212698,substation,,,,,,SRID=4326;POINT(8.5602390698114 49.9921018212698)
28657,10.2589414169243,47.8859194452791,substation,,,Umspannwerk Wolfertschwenden,LEW,,SRID=4326;POINT(10.2589414169243 47.8859194452791)
28679,8.31413224634628,49.006431492075,substation,110000,50,,EnBW AG,,SRID=4326;POINT(8.31413224634628 49.006431492075)
28680,8.31561236456636,49.0063693441196,substation,110000,50,,EnBW AG,,SRID=4326;POINT(8.31561236456636 49.0063693441196)
28732,7.01075517761419,51.7056687907262,sub_station,,,,,,SRID=4326;POINT(7.01075517761419 51.7056687907262)
28935,8.33729390699424,49.0584581644746,station,,,,,,SRID=4326;POINT(8.33729390699424 49.0584581644746)
28966,11.6514568475267,52.1403400302109,sub_station,110000,,Sandtorstraße,Städtische Werke Magdeburg;e.on Avacon,,SRID=4326;POINT(11.6514568475267 52.1403400302109)
29036,7.81575708590837,49.9220895596742,substation,380000;110000,,Umspannwerk Waldlaubersheim,RWE,,SRID=4326;POINT(7.81575708590837 49.9220895596742)
29092,7.75656088951955,48.2267890506587,substation,,,,,,SRID=4326;POINT(7.75656088951955 48.2267890506587)
29472,10.0490607515467,49.0123894253146,sub_station,,,,,,SRID=4326;POINT(10.0490607515467 49.0123894253146)
29473,9.86662609645903,49.2011850488556,substation,,,,,,SRID=4326;POINT(9.86662609645903 49.2011850488556)
29559,7.95753371999108,47.5721901074331,substation,220000,,,,,SRID=4326;POINT(7.95753371999108 47.5721901074331)
29560,7.93693906144299,47.6491062049867,substation,380000,,Kabelanfang PSP Wehr,,,SRID=4326;POINT(7.93693906144299 47.6491062049867)
29686,8.35462632875828,51.3544778585986,station,,,Station Bestwig,Westnetz,,SRID=4326;POINT(8.35462632875828 51.3544778585986)
29702,7.46131753903062,49.4101888151695,substation,,,,,,SRID=4326;POINT(7.46131753903062 49.4101888151695)
29887,7.27718354588316,52.7532334680545,substation,380000;110000,50,Meppen,TenneT,MEPP,SRID=4326;POINT(7.27718354588316 52.7532334680545)
29985,8.62319826283744,49.3566713073272,substation,380000;220000,50,Umspannwerk Neurott,EnBW,,SRID=4326;POINT(8.62319826283744 49.3566713073272)
30022,8.09736664348528,50.822027035366,substation,110000,50,,,,SRID=4326;POINT(8.09736664348528 50.822027035366)
30311,13.4428550481047,48.4345462247465,substation,220000,,Freiluftschaltanlage KW Schärding-Neuhaus,,,SRID=4326;POINT(13.4428550481047 48.4345462247465)
30403,7.74018297686608,50.00946025817,station,110000,50,Umspannwerk Oberheimbach,JUWI,,SRID=4326;POINT(7.74018297686608 50.00946025817)
30767,8.48819783686246,49.5996645120533,station,,,,,,SRID=4326;POINT(8.48819783686246 49.5996645120533)
32018,9.49768908053829,53.6395187950388,substation,220000,50,DOW,,,SRID=4326;POINT(9.49768908053829 53.6395187950388)
32022,8.819929791813,53.1074503414303,substation,220000;110000,50,Umspannwerk Blockland,swb Netze GmbH & Co. KG,,SRID=4326;POINT(8.819929791813 53.1074503414303)
32477,6.82317868978318,49.7433558165976,station,,,Herl,,,SRID=4326;POINT(6.82317868978318 49.7433558165976)
32648,9.0748843439733,52.1701627237619,substation,110000,50,Umspannwerk Rinteln-Süd,WestfalenWeser Netz,,SRID=4326;POINT(9.0748843439733 52.1701627237619)
32675,11.6994193130613,53.5723201110712,substation,380000,,Wessin,50Hertz,,SRID=4326;POINT(11.6994193130613 53.5723201110712)
33199,6.84810730266128,50.8617173194521,plant,,,Statkraft Kraftwerk Knapsack II,Statkraft,,SRID=4326;POINT(6.84810730266128 50.8617173194521)
33218,7.23233534324937,49.3579040643531,plant,,,Grubengas-Heizkraftwerk,Steag New Energies,,SRID=4326;POINT(7.23233534324937 49.3579040643531)
33513,7.41509979450641,52.0239113291696,substation,110000,,,,,SRID=4326;POINT(7.41509979450641 52.0239113291696)
33646,8.01816744247419,49.8154662404628,sub_station,110000,50,,AMPRION,,SRID=4326;POINT(8.01816744247419 49.8154662404628)
34275,7.50860475196543,51.4035597404569,station,,,,,,SRID=4326;POINT(7.50860475196543 51.4035597404569)
34451,8.56214173861232,49.1329556343469,substation,380000;110000,50,Umspannwerk Bruchsal-Kändelweg,EnBW;TransnetBW;NetzeBW,,SRID=4326;POINT(8.56214173861232 49.1329556343469)
34882,8.30844367240066,49.2571328218542,substation,380000,,Weingarten,,,SRID=4326;POINT(8.30844367240066 49.2571328218542)
36104,12.0877650729894,53.2509323263235,substation,380000,50,Umspannwerk Putlitz,50Hertz,,SRID=4326;POINT(12.0877650729894 53.2509323263235)
36108,9.38777959558349,51.6407781176194,substation,380000;220000;110000,,Umspannanlage Würgassen,Tennet TSO,,SRID=4326;POINT(9.38777959558349 51.6407781176194)
36230,10.1964803752421,50.0279774130022,substation,220000;110000,50,Schweinfurt,,,SRID=4326;POINT(10.1964803752421 50.0279774130022)
36234,8.27346493250405,49.0294830639266,substation,220000;110000,50,Umspannwerk Maximiliansau,Pfalzwerke AG,,SRID=4326;POINT(8.27346493250405 49.0294830639266)
38020,9.19699772171007,54.85110345339,substation,380000;110000;20000,50,Umspannwerk Jardelund,TenneT,,SRID=4326;POINT(9.19699772171007 54.85110345339)
39875,13.3367531702415,52.514850282935,substation,,,S-Bahn Gleichrichterunterwerk Tiergarten,S-Bahn Berlin GmbH,,SRID=4326;POINT(13.3367531702415 52.514850282935)
42195,6.98646123119149,54.0178365789963,plant,,,Gode Wind I,Gode Wind I GmbH,,SRID=4326;POINT(6.98646123119149 54.0178365789963)
43543,8.67876974607152,49.3497596167585,substation,,,Umspannwerk Leimen,NetzeBW,,SRID=4326;POINT(8.67876974607152 49.3497596167585)
43811,13.1435341049593,53.9081232274188,substation,380000;110000,50,Siedenbrünzow,50Hertz Transmission GmbH,,SRID=4326;POINT(13.1435341049593 53.9081232274188)
45046,10.6123957294136,48.0313556441031,plant,,,Solarpark,,,SRID=4326;POINT(10.6123957294136 48.0313556441031)
45582,7.44924656624752,50.4025219205625,substation,380000;220000;110000,50,Station Weißenthurm,Amprion,,SRID=4326;POINT(7.44924656624752 50.4025219205625)
69385,10.999313042243,52.2001376458634,merge,380000;110000,,Station Helmstedt 380 kV-Anlage;Umspannwerk Helmstedt,EON_Avacon,,SRID=4326;POINT(10.999313042243 52.2001376458634)
69412,11.8130898718828,48.2213167663279,merge,220000;110000,,Umspannwerk Neufinsing,'TenneT TSO GmbH, E.ON Netz GmbH',NFI,SRID=4326;POINT(11.8130898718828 48.2213167663279)
69585,6.78777228228128,51.5053299264702,merge,220000;110000;220000;110000,50,Umspannwerk Kopernikus;Station Kopernikus;Station Hamborn,Stadtwerke Duisburg,,SRID=4326;POINT(6.78777228228128 51.5053299264702)
69641,8.64163379259839,48.8900324884407,merge,220000;110000,50,220 kV-Umspannwerk Birkenfeld,EnBW,,SRID=4326;POINT(8.64163379259839 48.8900324884407)
69791,10.2854515202797,49.8989376361073,merge,110000,,Umspannwerk Brünnstadt,Unterfränkische Überlandzentrale eG,,SRID=4326;POINT(10.2854515202797 49.8989376361073)
70030,13.524281064643,52.5351981360662,merge,380000;220000;110000,50,Umspannwerk Marzahn,50Hertz,MZA9,SRID=4326;POINT(13.524281064643 52.5351981360662)
70034,6.80453055899726,50.9661832633093,merge,220000;110000,,Station Brauweiler,RWE,,SRID=4326;POINT(6.80453055899726 50.9661832633093)
70036,13.8412077771516,50.9902383473403,merge,380000;110000,50,Umspannwerk DD-Süd;Trafo 104;Trafo 103,Vattenfall;ENSO Strom AG;DREWAG,,SRID=4326;POINT(13.8412077771516 50.9902383473403)
70051,10.506491036461,52.3037288544801,merge,110000;220000,,Heizkraftwerk Nord;Umspannwerk Braunschweig Nord,Braunschweiger Versorgungs AG,,SRID=4326;POINT(10.506491036461 52.3037288544801)
70098,9.11366716486098,52.5459026576161,merge,220000,50,'Gasstation Landesbergen, Bezugsstation;Kraftwerk Robert Frank;Umspannwerk Kraftwerk Robert Frank',EON_Avacon,,SRID=4326;POINT(9.11366716486098 52.5459026576161)
70125,13.3041226100962,52.2308385756434,merge,110000;380000;220000;110000,50;16.7;50,Umrichterwerk Thyrow;Thyrow;Spitzenlastgasturbinenkraftwerk Thyrow;UW Thyrow Trfostation,DB_Energie,,SRID=4326;POINT(13.3041226100962 52.2308385756434)
70133,13.2117553310024,52.5799677434767,merge,110000;380000;110000,50;50,Oberhavel;Teufelsbruch,Vattenfall Europe AG,,SRID=4326;POINT(13.2117553310024 52.5799677434767)
70150,12.2149354752779,54.1002749934561,merge,380000,50,Bentwisch HGÜ;HGÜ Kontek - Stromrichterhalle Bentwisch,50Hertz Transmission,,SRID=4326;POINT(12.2149354752779 54.1002749934561)
70151,8.4752492061824,53.4286850666715,merge,380000;220000;110000;380000;220000,50;50,Unterweser;Kernkraftwerk Unterweser,EON_Netz,UWES,SRID=4326;POINT(8.4752492061824 53.4286850666715)
70153,7.35181060785281,51.5683678763881,merge,110000,50,Kraftwerk Knepper;Station Knepper,E.On Kraftwerke GmbH,,SRID=4326;POINT(7.35181060785281 51.5683678763881)
70183,7.31439374651719,51.4460531903066,merge,380000;380000;110000,50;50,Witten;Station Witten,RWE,,SRID=4326;POINT(7.31439374651719 51.4460531903066)
70190,10.2224310553909,48.7367243562549,merge,380000;110000,50,Umspannwerk Rotensohl,EnBW,,SRID=4326;POINT(10.2224310553909 48.7367243562549)
70197,12.1863428126768,53.8109549597378,merge,220000;110000;110000,50,Güstrow;Güstrow Nord,EON_edis,,SRID=4326;POINT(12.1863428126768 53.8109549597378)
70218,7.32071021014467,52.4713640731429,merge,380000;220000,50,Benteler Stahlwerk;Kernkraftwerk Emsland,KKW Lippe-Ems,KKE,SRID=4326;POINT(7.32071021014467 52.4713640731429)
70278,12.7609118759372,48.8070913818668,merge,110000,,Gänsdorf UW,,,SRID=4326;POINT(12.7609118759372 48.8070913818668)
70288,6.77124084721771,49.2919480520972,merge,380000;220000;110000;380000;220000;110000,50,Kraftwerk Ensdorf;Umspannanlage Ensdorf,VSE AG Kraftwerk Ensdorf,,SRID=4326;POINT(6.77124084721771 49.2919480520972)
70301,9.34503645082353,53.8521671749956,merge,380000;220000,,Kernkraftwerk Brokdorf;Brokdorf,E.ON,KBR,SRID=4326;POINT(9.34503645082353 53.8521671749956)
70379,7.1254963136699,51.4486792888033,merge,110000;380000;220000,50;50,Station Eiberg;Station Eiberg,RWE,,SRID=4326;POINT(7.1254963136699 51.4486792888033)
69371,12.9417262052397,52.5621020993505,merge,380000;220000;110000,,Wustermark;Am Umspannwerk,50Hertz Transmission GmbH;E.ON edis AG,Wu,SRID=4326;POINT(12.9417262052397 52.5621020993505)
69489,14.6043682300749,52.1744772837102,merge,380000;110000,50,Trafostation;Eisenhüttenstadt,E.ON edis AG,EH,SRID=4326;POINT(14.6043682300749 52.1744772837102)
69700,10.1879002446582,49.9812384436424,merge,380000,,Grafenrheinfeld,,GR,SRID=4326;POINT(10.1879002446582 49.9812384436424)
70026,6.97272318317932,50.7957293598528,merge,380000;220000;110000,,Station Sechtem,RWE,,SRID=4326;POINT(6.97272318317932 50.7957293598528)
70035,12.4696500088903,51.3717538501321,merge,220000;110000,50,Umspannwerk Taucha,50Hertz;enviaM,,SRID=4326;POINT(12.4696500088903 51.3717538501321)
70074,9.15118605993971,49.1433395015654,merge,380000;220000;110000,,380-kV-Umspannwerk Großgartach,,,SRID=4326;POINT(9.15118605993971 49.1433395015654)
70076,7.1863467054998,51.5504793167481,merge,220000;110000,50,Herne;Kraftwerk Herne Baukau,Evonik Industries AG,,SRID=4326;POINT(7.1863467054998 51.5504793167481)
70083,9.70424508645864,48.4649421804342,merge,380000;110000,50,EnBW Umspannwerk Laichingen,EnBW,,SRID=4326;POINT(9.70424508645864 48.4649421804342)
70102,9.49340916795172,52.5985236266571,merge,110000,50,Büren,EON_Netz,BUEN,SRID=4326;POINT(9.49340916795172 52.5985236266571)
70140,10.0828338372403,48.2674353649519,merge,380000;380000;220000;110000,50;50,Vöhringen Amprion;Vöhringen LEW,Ampirion,Station Nr. 625,SRID=4326;POINT(10.0828338372403 48.2674353649519)
70142,10.2315271951564,48.5297331313644,merge,380000;110000,50,Umspannwerk Niederstotzingen,EnBW,,SRID=4326;POINT(10.2315271951564 48.5297331313644)
70170,7.79628568862951,48.5574958396212,merge,,,Poste d´Électricité Porte du Rhin;Poste d´Électricité Porte du Rhin,,,SRID=4326;POINT(7.79628568862951 48.5574958396212)
70202,8.99290329686378,51.3429781401744,merge,380000;110000,50,Umspannwerk Twistetal;e.on Eigenbedarf,Eon_Netz,23060,SRID=4326;POINT(8.99290329686378 51.3429781401744)
70213,11.3387344287389,47.629560506238,merge,110000;110000,16.7;16.7;50;16.7,Walchenseekraftwerk,DB_Energie,,SRID=4326;POINT(11.3387344287389 47.629560506238)
70255,11.9496690195312,51.399442200243,merge,110000,16.7,Schaltwerk Schkopau;Kraftwerk Schkopau,DB_Energie,,SRID=4326;POINT(11.9496690195312 51.399442200243)
70263,14.3546317078808,51.5349817288755,merge,110000;110000,50;50,Kraftwerk Schwarze Pumpe,Vattenfall Europe Generation AG,,SRID=4326;POINT(14.3546317078808 51.5349817288755)
70275,11.2777396290837,47.4958206130136,merge,220000;110000,50,Umspannwerk Krün,E.ON Netz GmbH,,SRID=4326;POINT(11.2777396290837 47.4958206130136)
70298,7.75270715155948,48.0978639046328,merge,380000;220000;110000;220000;110000,50;50,380-kV-Umspannwerk Eichstetten;220-kV-Umspannwerk Eichstetten,EnBW,,SRID=4326;POINT(7.75270715155948 48.0978639046328)
70309,7.84003617443767,47.5860754197558,merge,380000;110000,,Schwörstadt,,,SRID=4326;POINT(7.84003617443767 47.5860754197558)
70328,6.72328664289038,51.3763194965477,merge,,,,,,SRID=4326;POINT(6.72328664289038 51.3763194965477)
70400,11.6464021773537,50.5348701983227,merge,380000;220000;110000;380000;380000;380000,50,Umspannwerk Remptendorf,50Hertz Transmission GmbH,RDF;RE,SRID=4326;POINT(11.6464021773537 50.5348701983227)
70486,13.8548491765935,50.9824493063496,merge,,,Solarpark Heidenau,Stadtwerke Dinslaken GmbH,,SRID=4326;POINT(13.8548491765935 50.9824493063496)
70544,7.74598414308874,52.2877355826606,merge,110000;220000,,RAG 110KV;RWE Power AG Kraftwerk Ibbenbüren;Kraftwerkschaltanlage Ibbenbüren,,,SRID=4326;POINT(7.74598414308874 52.2877355826606)
70673,8.89482980320627,52.5640363561374,merge,380000;110000,,Umspannwerk Ohlensehlen,TenneT TSO GmbH;Avacon AG,,SRID=4326;POINT(8.89482980320627 52.5640363561374)
70775,6.81465658204172,54.0179078546614,merge,,,Delta Nordsee I & II;Nordsee Three;Nordsee One,OWP Delta Nordsee GmbH,,SRID=4326;POINT(6.81465658204172 54.0179078546614)
70813,8.65581372087903,50.6048234758044,merge,380000;110000;110000;380000;110000,50;50;50,Umspannwerk Gießen Nord;Gießen/Süd;Umspannwerk Gießen Nord,EON_Netz,,SRID=4326;POINT(8.65581372087903 50.6048234758044)
70126,7.0477479513377,50.9044556138995,merge,220000;110000;110000;110000;15000;110000,50;50;50;16.7;50,Station Gremberghoven;Umspannwerk Gremberghoven;Umformerwerk Köln;Station Gremberghoven,RWE,,SRID=4326;POINT(7.0477479513377 50.9044556138995)
70158,9.91802185575851,52.3799541938837,merge,220000;110000,50,Station Ahlten;TenneT TSO GmbH - Betriebszentrum Lehrte,E-ON Avacon,,SRID=4326;POINT(9.91802185575851 52.3799541938837)
70185,8.73925264391598,51.7001262832278,merge,110000;220000;110000,50;50,Umspannwerk Paderborn Süd;Umspannwerk Paderborn Süd,Avacon,Am Atlaswerk,SRID=4326;POINT(8.73925264391598 51.7001262832278)
70203,9.20403331216041,49.0424158811086,merge,110000;220000,16.7;50,Schaltwerk Neckarwestheim;Drehstromschaltwerk Neckarwestheim,DB_Energie,,SRID=4326;POINT(9.20403331216041 49.0424158811086)
70216,7.60712391433278,51.8986079568914,merge,220000,50,Amelsbüren,Amprion,,SRID=4326;POINT(7.60712391433278 51.8986079568914)
70242,13.5203292157563,52.0811096458444,merge,110000;110000,50;50,Umspannwerk Baruth;Umspannwerk Baruth Nord,EON_edis,,SRID=4326;POINT(13.5203292157563 52.0811096458444)
70246,8.06616002939662,50.4059652586695,merge,380000;110000;110000;20000,50;16.7,Station Limburg;Umrichterwerk Limburg,'Amprion, Süwag',,SRID=4326;POINT(8.06616002939662 50.4059652586695)
70323,7.11450629636823,50.1496423231469,merge,,,RWE,,,SRID=4326;POINT(7.11450629636823 50.1496423231469)
70452,8.3057486381748,49.0134629398197,merge,380000;380000;380000;380000,50;50;50;50,Rheinhafen-Dampfkraftwerk,ENBW AG,,SRID=4326;POINT(8.3057486381748 49.0134629398197)
70476,8.43851134818958,49.2523506179185,merge,380000;110000;380000;380000,50;50;50;50,Philippsburg 110 kV;Kernkraftwerk Philippsburg;Philippsburg 380 kV,EnBW,,SRID=4326;POINT(8.43851134818958 49.2523506179185)
70015,13.3110023272492,52.5221080233324,merge,110000;110000,50,Heizkraftwerk Charlottenburg;Umspannwerk Charlottenburg,Vattenfall Europe AG,,SRID=4326;POINT(13.3110023272492 52.5221080233324)
70037,10.4150839967628,53.4128119969258,merge,380000;110000;110000,50,Krümmel,50Hertz,,SRID=4326;POINT(10.4150839967628 53.4128119969258)
70040,9.17450015696635,49.0409587087555,merge,110000;12500;110000;380000;380000;110000;110000;12500,16.7;16.7;50;16.7;16.7,Gemeinschaftskraftwerk Neckarwestheim;Gemeinschaftskraftwerk Neckarwestheim 2;Umrichterwerk Neckarwestheim,EnBW Kernkraft GmbH,GKN,SRID=4326;POINT(9.17450015696635 49.0409587087555)
70044,12.2950564584252,48.6054224844331,merge,110000;380000,,Kernkraftwerk Isar;Isar,E.ON,KKI,SRID=4326;POINT(12.2950564584252 48.6054224844331)
70045,8.05324043851103,53.3334140417312,merge,220000;110000;380000;220000;110000,50;50,Conneforde 110/220 kV;Conneforde,TenneT;EON_Netz,CONN,SRID=4326;POINT(8.05324043851103 53.3334140417312)
70046,8.87265555276335,50.1303810154836,merge,110000;220000;110000,50;50,Dörnigheim 110 kV;Dörnigheim 220 kV,EON_Netz,DOEH,SRID=4326;POINT(8.87265555276335 50.1303810154836)
70053,6.68085432500932,51.6463728896799,merge,110000;380000;220000;110000;110000;110000,,Station Niederrhein,RWE,,SRID=4326;POINT(6.68085432500932 51.6463728896799)
70072,6.86625803534745,51.3743071826442,merge,110000;220000;110000,,Station Selbeck;Station Selbeck,RWE,,SRID=4326;POINT(6.86625803534745 51.3743071826442)
70085,11.5622476161022,52.1239447191059,merge,110000;220000;110000,50;50,Magdeburg (EON Avacon);Magdeburg (50Hertz),EON_Avacon,Mgd,SRID=4326;POINT(11.5622476161022 52.1239447191059)
70093,8.99643966831448,52.3814719462823,merge,380000,50,Kraftwerk Heyden;KW Heyden,E.ON Kraftwerke GmbH,HEYD,SRID=4326;POINT(8.99643966831448 52.3814719462823)
70107,10.383048886935,52.9939634078838,merge,380000;110000,50;50,Stadorf;Stadorf,TenneT,,SRID=4326;POINT(10.383048886935 52.9939634078838)
70128,10.4216241292302,52.236891154047,merge,110000;220000,,Gleidingen 110 kV;Gleidingen 220 kV,EON_Netz,,SRID=4326;POINT(10.4216241292302 52.236891154047)
70136,7.03248959398353,49.3365267447798,merge,,,'Solarkraftwerk Göttelborn (8,3 MW peak);Kraftwerk Weiher',,,SRID=4326;POINT(7.03248959398353 49.3365267447798)
70139,13.4564244632672,52.5214459998228,merge,380000;110000,50,Umspannwerk Friedrichshain,Vattenfall Europe AG;50Hertz,4622,SRID=4326;POINT(13.4564244632672 52.5214459998228)
70154,8.44551909787102,48.9860892781306,merge,220000;110000,50,Umspannwerk Oberwald,,,SRID=4326;POINT(8.44551909787102 48.9860892781306)
70173,6.8419159676723,50.8596851804559,merge,380000;220000,,Kraftwerkschaltanlage Knapsack 1;Statkraft Kraftwerk Knapsack I,Statkraft,,SRID=4326;POINT(6.8419159676723 50.8596851804559)
70180,9.72598064299442,54.2894372497235,merge,380000;110000;220000;110000,50;50;50,Audorf;Kraftwerk Audorf;Audorf,TenneT,,SRID=4326;POINT(9.72598064299442 54.2894372497235)
70196,8.31885603430513,52.0660524475265,merge,220000;110000,50;50,Station Hesseln;Station Voßheide,RWE,,SRID=4326;POINT(8.31885603430513 52.0660524475265)
70211,8.46546159237346,48.0435746220272,merge,380000;110000,50,Umspannwerk Villingen,EnBW; Energiedienst,,SRID=4326;POINT(8.46546159237346 48.0435746220272)
70265,13.5232354917231,52.4249061750104,merge,,,,,,SRID=4326;POINT(13.5232354917231 52.4249061750104)
70291,7.70645620360392,51.2757581522586,merge,220000;110000,,Elverlingsen;Kraftwerk Werdohl-Elverlingsen,markE,,SRID=4326;POINT(7.70645620360392 51.2757581522586)
70303,6.99744507195301,51.2496108255376,merge,220000,50;50,Station Mettmann;Station Mettmann,RWE,,SRID=4326;POINT(6.99744507195301 51.2496108255376)
70374,7.46153672909867,51.6146353371962,merge,,,Trianel Kraftwerk Lünen,Trianel,,SRID=4326;POINT(7.46153672909867 51.6146353371962)
70455,8.49637252628401,49.4437955241156,merge,110000;220000;110000,50;16.7;50;16.7,Umrichterwerk Mannheim;Mannheim;Großkraftwerk Mannheim,DB Energie GmbH,,SRID=4326;POINT(8.49637252628401 49.4437955241156)
70522,7.97615295403057,51.4908110688264,merge,,,Station Ense,RWE,,SRID=4326;POINT(7.97615295403057 51.4908110688264)
70664,7.97134987804717,51.6781283650567,merge,110000;380000;110000;110000;380000,50;50;50;50,Kraftwerk Westfalen;Station Lippborg,RWE,,SRID=4326;POINT(7.97134987804717 51.6781283650567)
69393,13.2061720030044,52.6571370786562,merge,220000,50,Gewerbe Nord;Hennigsdorf,EON_edis,,SRID=4326;POINT(13.2061720030044 52.6571370786562)
69453,8.81399706573535,51.9834813115544,merge,220000;110000,50,Umspannwerk Lage,,,SRID=4326;POINT(8.81399706573535 51.9834813115544)
69661,8.21174762767299,51.1779651214081,merge,10000;380000;110000,50,Station Heimke;Station Arpe,RWE,,SRID=4326;POINT(8.21174762767299 51.1779651214081)
70032,14.4282090627009,51.8888221692937,merge,380000;110000;110000,50;50,Umspannwerk Preilack,50Hertz,PRL,SRID=4326;POINT(14.4282090627009 51.8888221692937)
70067,6.62486159433909,51.2599257813061,merge,220000;110000;380000,50;50,Station Osterath;Station Osterath,RWE,,SRID=4326;POINT(6.62486159433909 51.2599257813061)
70068,6.33002076712972,51.2428787469671,merge,380000;220000;110000,50,Station Dülken,RWE,,SRID=4326;POINT(6.33002076712972 51.2428787469671)
70123,9.88285323703459,51.5155135874275,merge,220000;110000,50,STL Siekweg;Umspannwerk Rosdorf,TenneT;AVACON,,SRID=4326;POINT(9.88285323703459 51.5155135874275)
70200,9.05027319674133,51.1666862316262,merge,110000;380000;380000,50;50;50;50,UW Waldeck,Avacon,,SRID=4326;POINT(9.05027319674133 51.1666862316262)
70214,8.95872398704777,50.082621680098,merge,380000;220000,50,Umspannwerk Großkrotzenburg,TenneT,,SRID=4326;POINT(8.95872398704777 50.082621680098)
70282,12.8527400433788,48.7644564387471,merge,380000;110000;380000;110000,,Umspannwerk Plattling;Umspannwerk Plattling,TenneT TSO GmbH,PLA,SRID=4326;POINT(12.8527400433788 48.7644564387471)
70345,9.23640271032498,48.9269661665689,merge,220000;110000,50,Marbach,,,SRID=4326;POINT(9.23640271032498 48.9269661665689)
70354,9.94999244940044,53.4890392966334,merge,,,Kraftwerk Moorburg,Vattenfall,,SRID=4326;POINT(9.94999244940044 53.4890392966334)
70390,6.81400840400399,49.2867084983027,merge,35000,,Schwalbach Mühle,VSE,,SRID=4326;POINT(6.81400840400399 49.2867084983027)
70403,10.3363963973198,49.4981127975,merge,,,Solarpark Buchheim,,,SRID=4326;POINT(10.3363963973198 49.4981127975)
70434,8.94961855223382,50.0888975099738,merge,220000;110000,50,Kraftwerkseinspeisung Staudinger;Kraftwerk Staudinger,,,SRID=4326;POINT(8.94961855223382 50.0888975099738)
70472,7.59314766261192,50.3860134657977,merge,380000;110000,,Station Koblenz,RWE,,SRID=4326;POINT(7.59314766261192 50.3860134657977)
70517,14.5698098048063,51.4198486977198,merge,110000,,Kraftwerk Boxberg,Vattenfall Europe,,SRID=4326;POINT(14.5698098048063 51.4198486977198)
70066,11.5043412855789,48.7621630124833,merge,380000;220000;110000,50,Ingolstadt;Kraftwerk Ingolstadt,EON,IN,SRID=4326;POINT(11.5043412855789 48.7621630124833)
70071,6.87291869971603,51.4457783550175,merge,220000;110000,50,Styrum,,,SRID=4326;POINT(6.87291869971603 51.4457783550175)
70101,7.23542962031987,49.3627899986493,merge,380000;380000;220000;110000,50;50,Mittelbexbach;Schaltanlage St. Barbara;Kraftwerk Bexbach,Amprion,,SRID=4326;POINT(7.23542962031987 49.3627899986493)
70240,7.30534459801476,52.4800010371722,merge,380000;110000;380000;220000;110000;110000,50,Erdgaskraftwerk Emsland;Kernkraftwerk Lingen (stillgelegt);Hanekenfähr,RWE AG,,SRID=4326;POINT(7.30534459801476 52.4800010371722)
70250,7.04359883482281,49.2143013404,merge,220000;110000,50,UA Brebach,,,SRID=4326;POINT(7.04359883482281 49.2143013404)
70254,9.44943467885108,53.9670755867182,merge,220000;110000,50;50,Itzehoe/West;Gasturbinenkraftwerk Itzehoe,TenneT,,SRID=4326;POINT(9.44943467885108 53.9670755867182)
70267,13.5064057279835,52.4312238188079,merge,,,,,,SRID=4326;POINT(13.5064057279835 52.4312238188079)
70315,6.6300450727968,49.4545538465838,merge,220000;110000;220000;110000;110000,50;50;50;50,220 kV Saar Nord;Merzig -;220 kV Saar Nord | 110kV Merzig Ltg.;UA Merzig,Amprion,,SRID=4326;POINT(6.6300450727968 49.4545538465838)
69413,7.72920586289688,49.4826135311802,merge,220000;110000,50,Otterbach,Amprion,,SRID=4326;POINT(7.72920586289688 49.4826135311802)
69531,7.79253396742881,49.8104357843708,merge,220000;110000,50,Niederhausen,,,SRID=4326;POINT(7.79253396742881 49.8104357843708)
69618,11.3269829150753,49.3934753389308,merge,220000;110000,50,Umspannwerk Ludersheim,TenneT TSO GmbH;E.ON Netz GmbH,LU,SRID=4326;POINT(11.3269829150753 49.3934753389308)
69667,6.35932508305371,50.9062630085732,merge,110000,50,Station Jülich Kinofilm,RWE,,SRID=4326;POINT(6.35932508305371 50.9062630085732)
69906,7.01011674843301,52.1773830265123,merge,110000,,,,,SRID=4326;POINT(7.01011674843301 52.1773830265123)
70064,11.1934193301713,50.16237920085,merge,110000;380000;110000,50,Umspannwerk Redwitz,,RED,SRID=4326;POINT(11.1934193301713 50.16237920085)
70041,10.0906198164644,52.314337337281,merge,110000;220000;110000,,Gemeinschaftskraftwerk Mehrum;Mehrum (220 kV),Kraftwerk Mehrum GmbH,,SRID=4326;POINT(10.0906198164644 52.314337337281)
70050,6.5757168461101,51.0547446015417,merge,220000;110000,,RWE Kraftwerk Frimmersdorf;Umspannanlage Frimmersdorf I,RWE,,SRID=4326;POINT(6.5757168461101 51.0547446015417)
70065,11.1068579454618,49.979041123697,merge,380000;380000;380000,,Umspannwerk Würgau;Raitersaich - Würgau;Kriegenbrunn - Redwitz;Raitersaich - Würgau;Kriegenbrunn - Redwitz,TenneT TSO GmbH,WG,SRID=4326;POINT(11.1068579454618 49.979041123697)
70073,9.42525731498124,48.0641302390768,merge,380000;220000;110000,,Umspannwerk Herbertingen,EnBW,,SRID=4326;POINT(9.42525731498124 48.0641302390768)
70086,6.71804683704105,51.5287926406891,merge,220000;110000;380000,50;50,Station Walsum;Walsum Block 10;Kraftwerk Duisburg-Walsum,Amprion,,SRID=4326;POINT(6.71804683704105 51.5287926406891)
70168,7.71587472782178,51.6746596478838,merge,380000;220000;110000,50,Station Gersteinwerk,RWE Gersteinwerk,,SRID=4326;POINT(7.71587472782178 51.6746596478838)
70195,13.4795013581914,52.5338835105877,merge,110000,50,Gleichrichterwerk 405 Berliner Straße;Umspannwerk Fennpfuhl,Berliner Verkehrsbetriebe,405,SRID=4326;POINT(13.4795013581914 52.5338835105877)
70235,7.79823206259773,48.5251025370143,merge,,,Centrale hydroélectrique de Strasbourg;Poste électrique de Port-du-Rhin,EDF,,SRID=4326;POINT(7.79823206259773 48.5251025370143)
70245,8.08222965368993,52.8583105254759,merge,110000;220000,50;50,Cloppenburg 110 kV;Cloppenburg 220 kV,EON_Netz,CLPO,SRID=4326;POINT(8.08222965368993 52.8583105254759)
70295,7.92837806319689,51.6740335184643,merge,380000,,Geithe;GuD-Kraftwerk Hamm-Uentrop,Trianel,BNA0401;BNA0411,SRID=4326;POINT(7.92837806319689 51.6740335184643)
70313,9.20729173057016,49.1755858105464,merge,,,Heizkraftwerk Heilbronn;Umspannwerk Heilbronn,ENBW,,SRID=4326;POINT(9.20729173057016 49.1755858105464)
70318,6.74112699277842,49.3573268282268,merge,220000,50,UA Dillinger Hütte Mitte,,,SRID=4326;POINT(6.74112699277842 49.3573268282268)
70363,8.54266993766778,50.0958290923269,merge,,,,,,SRID=4326;POINT(8.54266993766778 50.0958290923269)
70378,7.59136529128709,51.928440502631,merge,220000;110000,50,Station Münster,RWE,,SRID=4326;POINT(7.59136529128709 51.928440502631)
70431,6.62071475284415,49.7484795058565,merge,110000;220000,50;50,Station Trier,Amprion,,SRID=4326;POINT(6.62071475284415 49.7484795058565)
70461,8.41527972464906,49.7093172032355,merge,380000;220000,,Kernkraftwerk Biblis;Biblis A,RWE,,SRID=4326;POINT(8.41527972464906 49.7093172032355)
70510,8.03923345137135,47.5592429987495,merge,,,,,,SRID=4326;POINT(8.03923345137135 47.5592429987495)
70603,11.8033098991067,48.455482034525,merge,110000;220000,50;50,,,,SRID=4326;POINT(11.8033098991067 48.455482034525)
70612,10.977377563313,52.1690452344342,merge,,,Kraftwerk Buschhaus,E.ON Kraftwerke GmbH,,SRID=4326;POINT(10.977377563313 52.1690452344342)
70904,6.62457280003915,51.0367860049099,merge,380000;220000;110000,50,RWE Kraftwerk Neurath;KW Neurath;RWE Kraftwerk Neurath BoA Bl. F/G;Biogas Blockheizkraftwerk,RWE,,SRID=4326;POINT(6.62457280003915 51.0367860049099)
70914,10.8250716352189,49.3571648693432,merge,110000,,Umspannanlage Müncherlbach-Solarpark,,,SRID=4326;POINT(10.8250716352189 49.3571648693432)
69461,8.69516113895978,53.0925253034754,merge,380000;110000,50,Niedervieland,Wesernetz,NVLD,SRID=4326;POINT(8.69516113895978 53.0925253034754)
69456,9.09055906202707,49.9699836510465,merge,380000;220000;110000,50,Umspannwerk Aschaffenburg,TenneT TSO GmbH;E.ON Netz GmbH,AS,SRID=4326;POINT(9.09055906202707 49.9699836510465)
69512,10.3633415547822,47.7382558154671,merge,380000;220000,50,Schaltanlage Leupolz,Amprion,734 A,SRID=4326;POINT(10.3633415547822 47.7382558154671)
69606,6.99611167365592,51.5141819500837,merge,380000;110000,50,Station Karnap;Station Arenberg,,,SRID=4326;POINT(6.99611167365592 51.5141819500837)
69644,7.59764642125137,51.3474174557822,merge,110000,50,Umspannanlage Oege,markE,,SRID=4326;POINT(7.59764642125137 51.3474174557822)
69721,11.370650996288,48.2914464810212,merge,380000;220000;110000,,Umspannwerk Oberbachern,TenneT TSO GmbH;E.ON Netz GmbH,OBA,SRID=4326;POINT(11.370650996288 48.2914464810212)
69786,9.98835991763386,53.7661314142909,merge,220000;110000;30000;11000;400,50,Hamburg Nord;Henstedt-Ulzburg Kirchweg 17b,TenneT;Schleswig-Holstein Netz AG,,SRID=4326;POINT(9.98835991763386 53.7661314142909)
70012,7.61693019585546,51.6369901982177,merge,110000;380000,50,Bergkamen A;Kraftwerk Bergkamen,RWE; evonik,,SRID=4326;POINT(7.61693019585546 51.6369901982177)
70022,6.32135995510046,50.8383026671046,merge,,,RWE Kraftwerk Weisweiler,RWE,,SRID=4326;POINT(6.32135995510046 50.8383026671046)
70062,8.5167530826745,53.2019252844292,merge,380000;110000,50;50,Umspannwerk Farge;Umspannwerk Farge;Kraftwerk Farge,TenneT TSO GmbH,FARG,SRID=4326;POINT(8.5167530826745 53.2019252844292)
70078,9.19488886925179,48.9134592223643,merge,220000;110000;380000;220000;110000,50;50,Umspannwerk Hoheneck EnBW;Umspannstation Hoheneck Amprion,EnBW,,SRID=4326;POINT(9.19488886925179 48.9134592223643)
70080,9.37193820632547,48.7185740820468,merge,380000;110000,50,EnBW Umspannwerk Altbach 1;EnBW Umspannwerk Altbach 2;Heizkraftwerk Altbach/Deizisau,EnBW,,SRID=4326;POINT(9.37193820632547 48.7185740820468)
70084,8.14199776632959,53.5639678733638,merge,110000;220000;110000,,Uniper Kraftwerk Wilhelmshaven;Wilhelmshaven Gasturbine;Umspannwerk Kraftwerk Wilhelmshaven,EON_Netz,WHGT,SRID=4326;POINT(8.14199776632959 53.5639678733638)
70091,13.2470743843437,52.5334412882681,merge,380000;110000;110000,50;50,Heizkraftwerk Reuter West;Umspannwerk Reuter;Umspannwerk Reuter 110/30KV,Vattenfall Europe AG,,SRID=4326;POINT(13.2470743843437 52.5334412882681)
70124,11.5825527196153,48.7661662698053,merge,380000;220000;110000,50,Irsching;Kraftwerk Irsching,Isar-Amperwerke,3887,SRID=4326;POINT(11.5825527196153 48.7661662698053)
70141,10.401460934356,48.5140683594272,merge,380000;110000,50,Kernkraftwerk Gundremmingen;Gundremmingen,LEW,KRB,SRID=4326;POINT(10.401460934356 48.5140683594272)
70157,6.66768117680512,50.9932912305209,merge,220000;110000,50;50,Station Auenheim;KW Niederaußem;Kraftwerk Niederaußem,RWE,,SRID=4326;POINT(6.66768117680512 50.9932912305209)
70171,11.1223692255988,50.998875126353,merge,380000;220000;110000;110000,50;50,Umspannwerk Vieselbach;Vieselbach (TEN),50Hertz Transmission GmbH,,SRID=4326;POINT(11.1223692255988 50.998875126353)
70241,6.80133715005736,51.123842007134,merge,220000;110000;380000;220000,50;50,Station Sankt Peter 220 kV;Station Sankt Peter 380 kV,RWE,,SRID=4326;POINT(6.80133715005736 51.123842007134)
70373,7.33690104557383,51.6311078187982,merge,110000;110000;380000;110000,16.7;16.7;50;16.7,Kraftwerk Datteln 4;Kraftwerk Datteln;Kraftwerk Datteln;Kraftwerk Datteln;Schaltanlage Datteln 4,eon,,SRID=4326;POINT(7.33690104557383 51.6311078187982)
70376,13.2560629416601,50.9301717008095,merge,110000;380000,50;50,Freiberg/Nord (110 kV);Freiberg/Nord (380 kV),enviaM,,SRID=4326;POINT(13.2560629416601 50.9301717008095)
70464,10.734830719174,51.4402352176865,merge,110000;15000;220000;110000;110000,50;16.7;50;50;50;16.7,Umformwerk Wolkramshausen;Wolkramshausen (220 kV);Wolkramshausen (110 kV);Schaltwerk Wolkramshausen Süd,DB_Energie,WK,SRID=4326;POINT(10.734830719174 51.4402352176865)
70820,6.68224655213283,51.5774856572905,merge,220000;380000,,Kraftwerk Voerde;Station Möllen;Station Zensenbusch,evonik,,SRID=4326;POINT(6.68224655213283 51.5774856572905)
48274,8.6733134792451,49.9422308722911,joint,110000;380000;220000;110000;380000;220000;110000,,'1 x 110 kV;2 x 380 kV, 2 x 220 kV, 2 x 110 kV;2 x 380 kV, 2 x 220 kV, 1 x 110 kV',,,SRID=4326;POINT(8.6733134792451 49.9422308722911)
48281,13.5148195457871,52.6207601089547,joint,380000;380000;380000,50;50,517;517;518;518,50Hertz,517,SRID=4326;POINT(13.5148195457871 52.6207601089547)
48283,13.4799349090328,52.6283285649822,joint,220000;380000;380000;220000,50;50,293;294;293;294;517;518,50Hertz,293;294,SRID=4326;POINT(13.4799349090328 52.6283285649822)
48325,8.52590551067584,49.8557200669619,joint,380000;380000;220000;380000;220000,50;50,'1 x 380 kV, 1 x 220 kV',RWE,4134,SRID=4326;POINT(8.52590551067584 49.8557200669619)
48338,8.79970275662805,50.354268702098,joint,380000;110000;380000;110000,,,,Leitung 3023,SRID=4326;POINT(8.79970275662805 50.354268702098)
48344,8.65154864738381,50.2021889777225,joint,380000;110000;110000,50;50,380 kV 3011; 220 kV 1046,TenneT,3011;1046,SRID=4326;POINT(8.65154864738381 50.2021889777225)
48345,8.64712965483816,50.2001594934033,joint,380000;110000;110000,50;50,380 kV 3011; 220 kV 1046,TenneT,3011;1046,SRID=4326;POINT(8.64712965483816 50.2001594934033)
48353,9.29358545055896,48.8663994790317,joint,380000;380000;110000;110000,50;50;16.7;16.7,'Anlage 372 ; MUHLHS-WDLNG, MULHS-PULVE;Anlage 336;Bahn Plochingen - Stuttgart 110 kV',EnBW,,SRID=4326;POINT(9.29358545055896 48.8663994790317)
48372,9.45870792703647,53.8645210981048,joint,220000;380000;220000;380000,50;50;50,202A;307;202A;307,TenneT,,SRID=4326;POINT(9.45870792703647 53.8645210981048)
48607,6.61109267348956,51.4709956023626,joint,380000;220000;110000;380000;220000;110000;110000,50;50;50;50,380kV Meerbusch West+220kV Mündelheim Nord;110kV Neukirchen Ost+Repelen West;110kV Neukirchen Ost+Repelen West,RWE,4540,SRID=4326;POINT(6.61109267348956 51.4709956023626)
48609,8.52894019936866,49.856341498397,joint,380000;380000;220000;380000;220000,,'380kV Trebur Nord, 220kV Kranichstein Ost; 380kV Ried Ost, 220kV Pfungstadt;1 x 380 kV, 2 x 220 kV',RWE,Anlage 4591,SRID=4326;POINT(8.52894019936866 49.856341498397)
48611,8.58323275817333,49.8183468147501,joint,380000;220000;220000;380000,50;50;50,380 kV Ried Ost|West; 220 kV Kranichstein Ost; Marxheim Ost; Pfungstadt Ost;220 kV Kranichstein Ost; Marxheim Ost; Pfungstadt Ost;380 kV Ried Ost|West,RWE,4591,SRID=4326;POINT(8.58323275817333 49.8183468147501)
48699,8.77860734931648,49.9687442834315,joint,380000;110000;380000;220000;110000,,'2 x 380 kV, 2 x 220 kV, 2 x 110 kV;2 x 380 kV, 2 x 220 kV',,,SRID=4326;POINT(8.77860734931648 49.9687442834315)
48719,11.8224260695192,48.2292075683419,joint,380000;380000;380000,,Oberbachern - Ottenhofen;Oberbachern - Ottenhofen;Oberbachern - Ottenhofen,TenneT TSO GmbH,462,SRID=4326;POINT(11.8224260695192 48.2292075683419)
48729,10.7026695101626,52.3633674112391,joint,380000;110000;380000;110000,50;50;50,'Leitung 3023;Leitung 1818 (System 120,123);Leitung 3023 - Leitung 1818',TenneT,120;123,SRID=4326;POINT(10.7026695101626 52.3633674112391)
48792,6.63478232551014,51.6218745639361,joint,380000;220000;110000;380000;220000;110000,,110kV Sternbusch Tr13+14,RWE,4572,SRID=4326;POINT(6.63478232551014 51.6218745639361)
48795,6.64638658268734,51.607116794193,joint,110000;380000;220000;25000;380000;220000;110000;25000,,110kV Sternbusch Tr13+14,RWE,0274,SRID=4326;POINT(6.64638658268734 51.607116794193)
48796,6.65963412801378,51.5995478716066,joint,110000;380000;220000;110000;25000;380000;220000;110000;25000,,Sternbusch Tr13+14;Sternbusch Tr13+14,RWE,4574,SRID=4326;POINT(6.65963412801378 51.5995478716066)
48803,6.67950854519116,51.6515834911858,joint,220000;380000;220000;380000;110000;110000,,Pfalzdorf TR211+TR212,RWE,2444,SRID=4326;POINT(6.67950854519116 51.6515834911858)
48806,6.67883912064144,51.6558062986481,joint,380000;220000;110000;380000;220000;110000;110000,50;16.7;16.7,,RWE,4569,SRID=4326;POINT(6.67883912064144 51.6558062986481)
48807,6.6849759615049,51.6377994619084,joint,110000;220000;110000;220000;110000,,110kV Lohberg Ltg;220kV Wesel Ost;110kV Götterswick Nord+Lohberg Ltg,RWE,2339,SRID=4326;POINT(6.6849759615049 51.6377994619084)
48827,6.72535190975952,51.3600975917548,joint,380000;220000;220000;110000;380000;220000;110000,50,Meerbusch West+ANK;220kV Rheinhausen West,RWE,4578,SRID=4326;POINT(6.72535190975952 51.3600975917548)
48828,6.72391550362021,51.3626524976836,joint,380000;380000;220000;220000,50,Meerbusch West+ANK,RWE,4578,SRID=4326;POINT(6.72391550362021 51.3626524976836)
48867,6.29241388914371,50.8301360999257,joint,380000;110000;110000;380000;110000,50;50;50,380 kV Röhe Nord;380 kV Röhe Nord,RWE,,SRID=4326;POINT(6.29241388914371 50.8301360999257)
48890,7.51204056038073,51.4009299001033,joint,110000;220000;110000;220000,16.7;50;16.7,Finnentrop - Hagen;220kV Nordleitung+Südleitung,DB_Energie,475,SRID=4326;POINT(7.51204056038073 51.4009299001033)
